{
"type": "FeatureCollection",
"crs": { "type": "name", "properties": { "name": "urn:ogc:def:crs:OGC:1.3:CRS84" } },
"features": [
{ "type": "Feature", "properties": { "NPI": "1225228265", "Name": "HANGER PROSTHETICS & ORTHOTICS WEST INC", "Telephone": "9287759280", "City": "PRESCOTT VALLEY", "State2": "AZ", "Zip5": null, "address": "3173 N WINDSONG DR, PRESCOTT VALLEY, AZ, ", "match": true, "lat": 34.587090229000069, "lon": -112.32680160599995 }, "geometry": { "type": "Point", "coordinates": [ -112.326801605999947, 34.587090229000069 ] } },
{ "type": "Feature", "properties": { "NPI": "1477627354", "Name": "HANGER PROSTHETICS & ORTHOTICS WEST INC", "Telephone": "9283411965", "City": "YUMA", "State2": "AZ", "Zip5": null, "address": "1025 W 24TH ST, YUMA, AZ, ", "match": true, "lat": 32.683950218000064, "lon": -114.63088977499996 }, "geometry": { "type": "Point", "coordinates": [ -114.630889774999957, 32.683950218000064 ] } },
{ "type": "Feature", "properties": { "NPI": "1104968288", "Name": "MEDSOURCE ORTHOTICS & PROSTHETICS", "Telephone": "6238151001", "City": "SUN CITY", "State2": "AZ", "Zip5": null, "address": "14821 N DEL WEBB BLVD, SUN CITY, AZ, ", "match": true, "lat": 33.619774201000041, "lon": -112.29081989399998 }, "geometry": { "type": "Point", "coordinates": [ -112.290819893999981, 33.619774201000041 ] } },
{ "type": "Feature", "properties": { "NPI": "1093717365", "Name": "ORTHOTIC SPECIALISTS, INC", "Telephone": "6022631010", "City": "PHOENIX", "State2": "AZ", "Zip5": null, "address": "2650 E MCDOWELL RD, PHOENIX, AZ, ", "match": true, "lat": 33.465764954000065, "lon": -112.02458986199997 }, "geometry": { "type": "Point", "coordinates": [ -112.024589861999971, 33.465764954000065 ] } },
{ "type": "Feature", "properties": { "NPI": "1386786614", "Name": "MEDSOURCE ORTHOTICS & PROSTHETICS, INC", "Telephone": "6023953354", "City": "PHOENIX", "State2": "AZ", "Zip5": null, "address": "3636 N 3RD AVE, PHOENIX, AZ, ", "match": true, "lat": 33.489817018000053, "lon": -112.07822972499997 }, "geometry": { "type": "Point", "coordinates": [ -112.078229724999971, 33.489817018000053 ] } },
{ "type": "Feature", "properties": { "NPI": "1043769169", "Name": "MEDSOURCE ORTHOTICS & PROSTHETICS, INC", "Telephone": "6023953354", "City": "SUN CITY", "State2": "AZ", "Zip5": null, "address": "13203 N 103RD AVE, SUN CITY, AZ, ", "match": true, "lat": 33.603058446000034, "lon": -112.28123664199995 }, "geometry": { "type": "Point", "coordinates": [ -112.281236641999953, 33.603058446000034 ] } },
{ "type": "Feature", "properties": { "NPI": "1265904650", "Name": "MONARCH PROSTHETICS AND ORTHOTICS", "Telephone": "4803649905", "City": "GILBERT", "State2": "AZ", "Zip5": null, "address": "544 E DEVON DR, GILBERT, AZ, ", "match": true, "lat": 33.331374011000037, "lon": -111.77829933099997 }, "geometry": { "type": "Point", "coordinates": [ -111.778299330999971, 33.331374011000037 ] } },
{ "type": "Feature", "properties": { "NPI": "1508930462", "Name": "HANGER PROSTHETICS & ORTHOTICS WEST, INC.", "Telephone": "4809451929", "City": "SCOTTSDALE", "State2": "AZ", "Zip5": null, "address": "3303 N 75TH ST, SCOTTSDALE, AZ, ", "match": true, "lat": 33.485868054000036, "lon": -111.91966921999995 }, "geometry": { "type": "Point", "coordinates": [ -111.919669219999946, 33.485868054000036 ] } },
{ "type": "Feature", "properties": { "NPI": "1659832202", "Name": "CAPITOL ORTHOPEDIC INC", "Telephone": "9133698734", "City": "TUCSON", "State2": "AZ", "Zip5": null, "address": "1702 W ANKLAM RD, TUCSON, AZ, ", "match": true, "lat": 32.225745454000048, "lon": -111.00336280999994 }, "geometry": { "type": "Point", "coordinates": [ -111.003362809999942, 32.225745454000048 ] } },
{ "type": "Feature", "properties": { "NPI": "1629539275", "Name": "CAPITOL ORTHOPEDIC INC", "Telephone": "9133698734", "City": "PHOENIX", "State2": "AZ", "Zip5": null, "address": "4001 N 3RD ST, PHOENIX, AZ, ", "match": true, "lat": 33.493617427000061, "lon": -112.06941758499994 }, "geometry": { "type": "Point", "coordinates": [ -112.06941758499994, 33.493617427000061 ] } },
{ "type": "Feature", "properties": { "NPI": "1710445481", "Name": "CENTER FOR ORTHOPEDIC RESEARCH AND EDUCATION LLC", "Telephone": "8669742673", "City": "MESA", "State2": "AZ", "Zip5": null, "address": "1500 S DOBSON RD, MESA, AZ, ", "match": true, "lat": 33.387764152000045, "lon": -111.87465997599998 }, "geometry": { "type": "Point", "coordinates": [ -111.874659975999975, 33.387764152000045 ] } },
{ "type": "Feature", "properties": { "NPI": "1548893365", "Name": "CENTER FOR ORTHOPEDIC RESEARCH AND EDUCATION LLC", "Telephone": "8669742673", "City": "SUN CITY", "State2": "AZ", "Zip5": null, "address": "10484 W THUNDERBIRD BLVD, SUN CITY, AZ, ", "match": true, "lat": 33.604917869000076, "lon": -112.28476067699995 }, "geometry": { "type": "Point", "coordinates": [ -112.284760676999952, 33.604917869000076 ] } },
{ "type": "Feature", "properties": { "NPI": "1285258996", "Name": "MOBILITY PROSTHETIC AND ORTHOTIC SERVICES LLC", "Telephone": "9283774125", "City": "KINGMAN", "State2": "AZ", "Zip5": null, "address": "1921 MOTOR AVE, KINGMAN, AZ, ", "match": true, "lat": 35.208903275000068, "lon": -114.03308332099999 }, "geometry": { "type": "Point", "coordinates": [ -114.033083321, 35.208903275000068 ] } },
{ "type": "Feature", "properties": { "NPI": "1548465248", "Name": "ARIZONA OCULAR PROSTHETICS, LLC", "Telephone": "4802643041", "City": "TEMPE", "State2": "AZ", "Zip5": null, "address": "3025 S KENNETH PL, TEMPE, AZ, ", "match": true, "lat": 33.396208518000037, "lon": -111.91839417699998 }, "geometry": { "type": "Point", "coordinates": [ -111.918394176999982, 33.396208518000037 ] } },
{ "type": "Feature", "properties": { "NPI": "1851916217", "Name": "BIONIC PROSTHETICS AND ORTHOTICS GROUP LLC", "Telephone": "4802995177", "City": "GILBERT", "State2": "AZ", "Zip5": null, "address": "633 E RAY RD, GILBERT, AZ, ", "match": true, "lat": 33.321098344000063, "lon": -111.7766095 }, "geometry": { "type": "Point", "coordinates": [ -111.77660949999995, 33.321098344000063 ] } },
{ "type": "Feature", "properties": { "NPI": "1578541579", "Name": "ARTIFICIAL LIMB SPECIALISTS LLC", "Telephone": "6027452080", "City": "PHOENIX", "State2": "AZ", "Zip5": null, "address": "7600 N 15TH ST, PHOENIX, AZ, ", "match": true, "lat": 33.542123798000034, "lon": -112.05031712 }, "geometry": { "type": "Point", "coordinates": [ -112.050317119999988, 33.542123798000034 ] } },
{ "type": "Feature", "properties": { "NPI": "1396702718", "Name": "ARTIFICIAL LIMB SPECIALISTS LLC", "Telephone": "4809693999", "City": "MESA", "State2": "AZ", "Zip5": null, "address": "2058 S DOBSON RD, MESA, AZ, ", "match": true, "lat": 33.377311856000063, "lon": -111.87804200699998 }, "geometry": { "type": "Point", "coordinates": [ -111.878042006999976, 33.377311856000063 ] } },
{ "type": "Feature", "properties": { "NPI": "1114143567", "Name": "ARIZONA PROSTHETIC ORTHOTICS SERVICES", "Telephone": "5202290622", "City": "TUCSON", "State2": "AZ", "Zip5": null, "address": "2933 N CAMPBELL AVE, TUCSON, AZ, ", "match": true, "lat": 32.260034171000029, "lon": -110.94383272 }, "geometry": { "type": "Point", "coordinates": [ -110.943832719999989, 32.260034171000029 ] } },
{ "type": "Feature", "properties": { "NPI": "1417562695", "Name": "ARIZONA ORTHOTICS, LLC", "Telephone": "8337150729", "City": "PHOENIX", "State2": "AZ", "Zip5": null, "address": "8618 N 35TH AVE, PHOENIX, AZ, ", "match": true, "lat": 33.562866539000026, "lon": -112.13423027199997 }, "geometry": { "type": "Point", "coordinates": [ -112.134230271999968, 33.562866539000026 ] } },
{ "type": "Feature", "properties": { "NPI": "1932232444", "Name": "HANGER PROSTHETICS & ORTHOTICS WEST INC", "Telephone": "5207920044", "City": "TUCSON", "State2": "AZ", "Zip5": null, "address": "395 N SILVERBELL RD, TUCSON, AZ, ", "match": true, "lat": 32.226813091000054, "lon": -110.99860959699998 }, "geometry": { "type": "Point", "coordinates": [ -110.998609596999984, 32.226813091000054 ] } },
{ "type": "Feature", "properties": { "NPI": "1598839458", "Name": "HANGER PROSTHETICS & ORTHOTICS WEST INC", "Telephone": "6022640097", "City": "PHOENIX", "State2": "AZ", "Zip5": null, "address": "1641 E OSBORN RD, PHOENIX, AZ, ", "match": true, "lat": 33.487475373000052, "lon": -112.04667571 }, "geometry": { "type": "Point", "coordinates": [ -112.046675709999988, 33.487475373000052 ] } },
{ "type": "Feature", "properties": { "NPI": "1407920366", "Name": "HANGER PROSTHETICS & ORTHOTICS WEST, INC.", "Telephone": "6027650207", "City": "PHOENIX", "State2": "AZ", "Zip5": null, "address": "4045 E BELL RD, PHOENIX, AZ, ", "match": true, "lat": 33.640689860000066, "lon": -111.99543790099995 }, "geometry": { "type": "Point", "coordinates": [ -111.995437900999946, 33.640689860000066 ] } },
{ "type": "Feature", "properties": { "NPI": "1609386853", "Name": "RANDY WHITESIDE PROSTHETICS LLC", "Telephone": "6025961040", "City": "PHOENIX", "State2": "AZ", "Zip5": null, "address": "1190 E MISSOURI AVE, PHOENIX, AZ, ", "match": true, "lat": 33.516487893000033, "lon": -112.05641198799998 }, "geometry": { "type": "Point", "coordinates": [ -112.056411987999979, 33.516487893000033 ] } },
{ "type": "Feature", "properties": { "NPI": "1306068911", "Name": "TOWNSON'S PROSTHETICS", "Telephone": "5208881334", "City": "TUCSON", "State2": "AZ", "Zip5": null, "address": "3855 N ORACLE RD, TUCSON, AZ, ", "match": true, "lat": 32.276858708000077, "lon": -110.97824772599995 }, "geometry": { "type": "Point", "coordinates": [ -110.97824772599995, 32.276858708000077 ] } },
{ "type": "Feature", "properties": { "NPI": "1407047319", "Name": "CUSTOM OCULAR PROSTHETICS, INC.", "Telephone": "5207227471", "City": "TUCSON", "State2": "AZ", "Zip5": null, "address": "9465 E HARRISON PL, TUCSON, AZ, ", "match": true, "lat": 32.212406578000071, "lon": -110.79016158799999 }, "geometry": { "type": "Point", "coordinates": [ -110.790161587999989, 32.212406578000071 ] } },
{ "type": "Feature", "properties": { "NPI": "1750403275", "Name": "HANGER PROSTHETICS & ORTHTOTICS WEST INC", "Telephone": "5208897800", "City": "TUCSON", "State2": "AZ", "Zip5": null, "address": "2800 E AJO WAY, TUCSON, AZ, ", "match": true, "lat": 32.177942568000049, "lon": -110.93155738199994 }, "geometry": { "type": "Point", "coordinates": [ -110.931557381999937, 32.177942568000049 ] } },
{ "type": "Feature", "properties": { "NPI": "1346497617", "Name": "HANGER PROSTHETICS & ORTHOTICS WEST, INC.", "Telephone": "4809492760", "City": "SCOTTSDALE", "State2": "AZ", "Zip5": null, "address": "3126 N CIVIC CENTER PLZ, SCOTTSDALE, AZ, ", "match": true, "lat": 33.48440806800005, "lon": -111.92183820899999 }, "geometry": { "type": "Point", "coordinates": [ -111.921838208999986, 33.48440806800005 ] } },
{ "type": "Feature", "properties": { "NPI": "1407921273", "Name": "HANGER PROSTHETICS & ORTHOTICS WEST INC", "Telephone": "4808319279", "City": "CHANDLER", "State2": "AZ", "Zip5": null, "address": "2905 W WARNER RD, CHANDLER, AZ, ", "match": true, "lat": 33.334916908000025, "lon": -111.89147739699996 }, "geometry": { "type": "Point", "coordinates": [ -111.89147739699996, 33.334916908000025 ] } },
{ "type": "Feature", "properties": { "NPI": "1750693982", "Name": "ORTHOTIC & PROSTHETIC CARE, INC.", "Telephone": "6025616450", "City": "PHOENIX", "State2": "AZ", "Zip5": null, "address": "236 E HATCHER RD, PHOENIX, AZ, ", "match": true, "lat": 33.571396821000064, "lon": -112.07030971699999 }, "geometry": { "type": "Point", "coordinates": [ -112.070309716999986, 33.571396821000064 ] } },
{ "type": "Feature", "properties": { "NPI": "1932187218", "Name": "TUCSON ORTHOPEDIC LAB LLC", "Telephone": "5203190339", "City": "TUCSON", "State2": "AZ", "Zip5": null, "address": "3818 E 5TH ST, TUCSON, AZ, ", "match": true, "lat": 32.228882891000069, "lon": -110.91121742899998 }, "geometry": { "type": "Point", "coordinates": [ -110.911217428999976, 32.228882891000069 ] } },
{ "type": "Feature", "properties": { "NPI": "1912283953", "Name": "CREATIVE ORTHOTIC LABS", "Telephone": "6239343213", "City": "GLENDALE", "State2": "AZ", "Zip5": null, "address": "8608 N 59TH AVE, GLENDALE, AZ, ", "match": true, "lat": 33.5623491000001, "lon": -112.18624810499995 }, "geometry": { "type": "Point", "coordinates": [ -112.186248104999947, 33.562349100000063 ] } },
{ "type": "Feature", "properties": { "NPI": "1992754584", "Name": "TONY MARTIN LIMB AND BRACE, LLC", "Telephone": "5207907755", "City": "TUCSON", "State2": "AZ", "Zip5": null, "address": "5721 E 5TH ST, TUCSON, AZ, ", "match": true, "lat": 32.228921324000055, "lon": -110.87039904699998 }, "geometry": { "type": "Point", "coordinates": [ -110.870399046999978, 32.228921324000055 ] } },
{ "type": "Feature", "properties": { "NPI": "1437302544", "Name": "PROSTHETIC CENTER LLC", "Telephone": "4809510600", "City": "SCOTTSDALE", "State2": "AZ", "Zip5": null, "address": "8440 E MCDONALD DRIVE, SCOTTSDALE, AZ, ", "match": true, "lat": 33.523897937000072, "lon": -111.89934694799996 }, "geometry": { "type": "Point", "coordinates": [ -111.899346947999959, 33.523897937000072 ] } },
{ "type": "Feature", "properties": { "NPI": "1003980988", "Name": "HANGER PROSTHETICS & ORTHOTICS WEST, INC.", "Telephone": "6022743625", "City": "PHOENIX", "State2": "AZ", "Zip5": null, "address": "3816 N 7TH ST, PHOENIX, AZ, ", "match": true, "lat": 33.491405591000046, "lon": -112.06504988899997 }, "geometry": { "type": "Point", "coordinates": [ -112.065049888999965, 33.491405591000046 ] } },
{ "type": "Feature", "properties": { "NPI": "1649339615", "Name": "ARIZONA DESERT ORTHOPAEDIC CENTER, INC.", "Telephone": "6239746542", "City": "PEORIA", "State2": "AZ", "Zip5": null, "address": "13660 N 94TH DR, PEORIA, AZ, ", "match": true, "lat": 33.608725760000027, "lon": -112.26263408499995 }, "geometry": { "type": "Point", "coordinates": [ -112.262634084999945, 33.608725760000027 ] } },
{ "type": "Feature", "properties": { "NPI": "1033348024", "Name": "HANGER PROSTHETICS & ORTHOTICS WEST INC", "Telephone": "9287682454", "City": "FORT MOHAVE", "State2": "AZ", "Zip5": null, "address": "5225 HWY 95, FORT MOHAVE, AZ, ", "match": true, "lat": 35.005442466000034, "lon": -114.59806946499998 }, "geometry": { "type": "Point", "coordinates": [ -114.59806946499998, 35.005442466000034 ] } },
{ "type": "Feature", "properties": { "NPI": "1992870778", "Name": "HANGER PROSTHETICS & ORTHOTICS WEST, INC.", "Telephone": "6028403833", "City": "PHOENIX", "State2": "AZ", "Zip5": null, "address": "2222 E HIGHLAND AVE, PHOENIX, AZ, ", "match": true, "lat": 33.505682505000038, "lon": -112.03392688199995 }, "geometry": { "type": "Point", "coordinates": [ -112.033926881999946, 33.505682505000038 ] } },
{ "type": "Feature", "properties": { "NPI": "1386718260", "Name": "HANGER PROSTHETICS & ORTHOTICS WEST INC", "Telephone": "6024268896", "City": "PHOENIX", "State2": "AZ", "Zip5": null, "address": "4050 E COTTON CENTER BLVD, PHOENIX, AZ, ", "match": true, "lat": 33.403603113000031, "lon": -111.99400147299997 }, "geometry": { "type": "Point", "coordinates": [ -111.994001472999969, 33.403603113000031 ] } },
{ "type": "Feature", "properties": { "NPI": "1811343700", "Name": "CENTER FOR ORTHOPEDIC RESEARCH AND EDUCATION, INC", "Telephone": "8669742673", "City": "PHOENIX", "State2": "AZ", "Zip5": null, "address": "18444 N 25TH AVE, PHOENIX, AZ, ", "match": true, "lat": 33.653912949000073, "lon": -112.11187437199999 }, "geometry": { "type": "Point", "coordinates": [ -112.111874371999988, 33.653912949000073 ] } },
{ "type": "Feature", "properties": { "NPI": "1740636638", "Name": "CENTER FOR ORTHOPEDIC RESEARCH AND EDUCATION, INC", "Telephone": "8669742673", "City": "SUN CITY WEST", "State2": "AZ", "Zip5": null, "address": "14520 W GRANITE VALLEY DR, SUN CITY WEST, AZ, ", "match": true, "lat": 33.663109749000057, "lon": -112.37576270899996 }, "geometry": { "type": "Point", "coordinates": [ -112.375762708999957, 33.663109749000057 ] } },
{ "type": "Feature", "properties": { "NPI": "1548787930", "Name": "LIMB CENTER LLC", "Telephone": "6029001733", "City": "PHOENIX", "State2": "AZ", "Zip5": null, "address": "3020 N 44TH ST, PHOENIX, AZ, ", "match": true, "lat": 33.482729394000046, "lon": -111.98697692199994 }, "geometry": { "type": "Point", "coordinates": [ -111.98697692199994, 33.482729394000046 ] } },
{ "type": "Feature", "properties": { "NPI": "1811239346", "Name": "LIMB CENTER LLC", "Telephone": "5204131554", "City": "CASA GRANDE", "State2": "AZ", "Zip5": null, "address": "637 E COTTONWOOD LN, CASA GRANDE, AZ, ", "match": true, "lat": 32.894132815000034, "lon": -111.74558462 }, "geometry": { "type": "Point", "coordinates": [ -111.745584619999988, 32.894132815000034 ] } },
{ "type": "Feature", "properties": { "NPI": "1780758649", "Name": "HANGER PROSTHETICS & ORTHOTICS WEST INC", "Telephone": "5205159210", "City": "SIERRA VISTA", "State2": "AZ", "Zip5": null, "address": "1973 FRONTAGE RD, SIERRA VISTA, AZ, ", "match": true, "lat": 31.535744002000058, "lon": -110.25688448399995 }, "geometry": { "type": "Point", "coordinates": [ -110.256884483999954, 31.535744002000058 ] } },
{ "type": "Feature", "properties": { "NPI": "1487900817", "Name": "CENTER FOR ORTHOPEDIC RESEARCH AND EDUCATION, LLC", "Telephone": "8668742673", "City": "MESA", "State2": "AZ", "Zip5": null, "address": "1450 S DOBSON RD, MESA, AZ, ", "match": true, "lat": 33.388553146000049, "lon": -111.87466473999996 }, "geometry": { "type": "Point", "coordinates": [ -111.874664739999957, 33.388553146000049 ] } },
{ "type": "Feature", "properties": { "NPI": "1629234497", "Name": "HANGER PROSTHETICS & ORTHOTICS WEST, INC", "Telephone": "9284749896", "City": "PAYSON", "State2": "AZ", "Zip5": null, "address": "1106 N BEELINE HWY, PAYSON, AZ, ", "match": true, "lat": 34.254845293000074, "lon": -111.32249539099996 }, "geometry": { "type": "Point", "coordinates": [ -111.322495390999961, 34.254845293000074 ] } },
{ "type": "Feature", "properties": { "NPI": "1508528654", "Name": "MOBILITY PROSTHETIC AND ORTHOTIC SERVICES LLC", "Telephone": "9286804089", "City": "LAKE HAVASU CITY", "State2": "AZ", "Zip5": null, "address": "1675 MESQUITE AVE, LAKE HAVASU CITY, AZ, ", "match": true, "lat": 34.477622429000064, "lon": -114.34237407299997 }, "geometry": { "type": "Point", "coordinates": [ -114.342374072999974, 34.477622429000064 ] } },
{ "type": "Feature", "properties": { "NPI": "1215919378", "Name": "HANGER PROSTHETICS & ORTHOTICS WEST INC", "Telephone": "5208812312", "City": "TUCSON", "State2": "AZ", "Zip5": null, "address": "6567 E CARONDELET DR, TUCSON, AZ, ", "match": true, "lat": 32.226492905000043, "lon": -110.85291355799995 }, "geometry": { "type": "Point", "coordinates": [ -110.852913557999955, 32.226492905000043 ] } },
{ "type": "Feature", "properties": { "NPI": "1336215409", "Name": "FIKES ORTHOPEDIC SPECIALTIES, INC.", "Telephone": "9282272621", "City": "PRESCOTT", "State2": "AZ", "Zip5": null, "address": "715 WHITE SPAR RD, PRESCOTT, AZ, ", "match": true, "lat": 34.528872313000079, "lon": -112.47658023799994 }, "geometry": { "type": "Point", "coordinates": [ -112.47658023799994, 34.528872313000079 ] } },
{ "type": "Feature", "properties": { "NPI": "1740851385", "Name": "J.L. ARTIFICIAL LIMB & BRACE LLC", "Telephone": "9282347114", "City": "BULLHEAD CITY", "State2": "AZ", "Zip5": null, "address": "1744 HIGHWAY 95, BULLHEAD CITY, AZ, ", "match": true, "lat": 35.121862007000061, "lon": -114.58531260599995 }, "geometry": { "type": "Point", "coordinates": [ -114.585312605999945, 35.121862007000061 ] } },
{ "type": "Feature", "properties": { "NPI": "1235874348", "Name": "PONGRATZ ORTHOTICS & PROSTHETICS, INC.", "Telephone": "4807912999", "City": "SCOTTSDALE", "State2": "AZ", "Zip5": null, "address": "10133 N 92ND ST, SCOTTSDALE, AZ, ", "match": true, "lat": 33.578131552000059, "lon": -111.88057655399996 }, "geometry": { "type": "Point", "coordinates": [ -111.880576553999958, 33.578131552000059 ] } },
{ "type": "Feature", "properties": { "NPI": "1114663986", "Name": "CENTER FOR ORTHOPEDIC RESEARCH AND EDUCATION LLC", "Telephone": "8669742673", "City": "PHOENIX", "State2": "AZ", "Zip5": null, "address": "1331 N 7TH ST, PHOENIX, AZ, ", "match": true, "lat": 33.463115779000077, "lon": -112.06512894199994 }, "geometry": { "type": "Point", "coordinates": [ -112.065128941999944, 33.463115779000077 ] } },
{ "type": "Feature", "properties": { "NPI": "1376289140", "Name": "CENTER FOR ORTHOPEDIC RESEARCH AND EDUCATION LLC", "Telephone": "8669742673", "City": "PEORIA", "State2": "AZ", "Zip5": null, "address": "9139 W THUNDERBIRD RD, PEORIA, AZ, ", "match": true, "lat": 33.609706250000045, "lon": -112.25567636099998 }, "geometry": { "type": "Point", "coordinates": [ -112.255676360999985, 33.609706250000045 ] } },
{ "type": "Feature", "properties": { "NPI": "1083350995", "Name": "CENTER FOR ORTHOPEDIC RESEARCH AND EDUCATION LLC", "Telephone": "8669742673", "City": "PRESCOTT VALLEY", "State2": "AZ", "Zip5": null, "address": "3200 N WINDSONG DR, PRESCOTT VALLEY, AZ, ", "match": true, "lat": 34.58740926400003, "lon": -112.32679742999994 }, "geometry": { "type": "Point", "coordinates": [ -112.326797429999942, 34.58740926400003 ] } },
{ "type": "Feature", "properties": { "NPI": "1952767956", "Name": "OTTO BOCK ORTHOPEDIC SERVICES LLC", "Telephone": "8007368276", "City": "PHOENIX", "State2": "AZ", "Zip5": null, "address": "4022 E BROADWAY RD, PHOENIX, AZ, ", "match": true, "lat": 33.407295693000037, "lon": -111.99470095099997 }, "geometry": { "type": "Point", "coordinates": [ -111.99470095099997, 33.407295693000037 ] } },
{ "type": "Feature", "properties": { "NPI": "1861948242", "Name": "NEXTREMITY PROSTHETIC DESIGN", "Telephone": "8003115899", "City": "PHOENIX", "State2": "AZ", "Zip5": null, "address": "9130 W THOMAS RD, PHOENIX, AZ, ", "match": true, "lat": 33.479733163000049, "lon": -112.25630451199999 }, "geometry": { "type": "Point", "coordinates": [ -112.256304511999986, 33.479733163000049 ] } },
{ "type": "Feature", "properties": { "NPI": "1316011273", "Name": "HANGER PROSTHETICS & ORTHOTICS WEST INC", "Telephone": "4808147800", "City": "CHANDLER", "State2": "AZ", "Zip5": null, "address": "2175 N ALMA SCHOOL RD, CHANDLER, AZ, ", "match": true, "lat": 33.337341938000066, "lon": -111.85903799099998 }, "geometry": { "type": "Point", "coordinates": [ -111.85903799099998, 33.337341938000066 ] } },
{ "type": "Feature", "properties": { "NPI": "1326112285", "Name": "HANGER PROSTHETICS & ORTHOTICS WEST INC", "Telephone": "6235351919", "City": "AVONDALE", "State2": "AZ", "Zip5": null, "address": "13065 W MCDOWELL RD, AVONDALE, AZ, ", "match": true, "lat": 33.46425160900003, "lon": -112.34036761799996 }, "geometry": { "type": "Point", "coordinates": [ -112.340367617999959, 33.46425160900003 ] } },
{ "type": "Feature", "properties": { "NPI": "1962576850", "Name": "HANGER PROSTHETICS & ORTHOTICS WEST INC", "Telephone": "5208884757", "City": "TUCSON", "State2": "AZ", "Zip5": null, "address": "1845 W ORANGE GROVE RD, TUCSON, AZ, ", "match": true, "lat": 32.32313232000007, "lon": -111.00662710399996 }, "geometry": { "type": "Point", "coordinates": [ -111.006627103999961, 32.32313232000007 ] } },
{ "type": "Feature", "properties": { "NPI": "1780758672", "Name": "HANGER PROSTHETICS & ORTHOTICS WEST INC", "Telephone": "5207958900", "City": "TUCSON", "State2": "AZ", "Zip5": null, "address": "4951 E GRANT RD, TUCSON, AZ, ", "match": true, "lat": 32.250657526000055, "lon": -110.88763526299999 }, "geometry": { "type": "Point", "coordinates": [ -110.887635263, 32.250657526000055 ] } },
{ "type": "Feature", "properties": { "NPI": "1114092970", "Name": "HANGER PROSTHETICS & ORTHOTICS WEST, INC.", "Telephone": "5203220099", "City": "TUCSON", "State2": "AZ", "Zip5": null, "address": "4920 E SPEEDWAY BLVD, TUCSON, AZ, ", "match": true, "lat": 32.236210799000048, "lon": -110.88779212999998 }, "geometry": { "type": "Point", "coordinates": [ -110.88779212999998, 32.236210799000048 ] } },
{ "type": "Feature", "properties": { "NPI": "1568536449", "Name": "HANGER PROSTHETICS & ORTHOTICS WEST INC", "Telephone": "9287732544", "City": "FLAGSTAFF", "State2": "AZ", "Zip5": null, "address": "77 W FOREST AVE, FLAGSTAFF, AZ, ", "match": true, "lat": 35.210744508000062, "lon": -111.64400322199998 }, "geometry": { "type": "Point", "coordinates": [ -111.644003221999981, 35.210744508000062 ] } },
{ "type": "Feature", "properties": { "NPI": "1164754164", "Name": "HANGER PROSTHETICS & ORTHOTICS WEST, INC.", "Telephone": "5206481537", "City": "GREEN VALLEY", "State2": "AZ", "Zip5": null, "address": "1055 N LA CANADA DR, GREEN VALLEY, AZ, ", "match": true, "lat": 31.884987752000029, "lon": -110.99490974099996 }, "geometry": { "type": "Point", "coordinates": [ -110.994909740999958, 31.884987752000029 ] } },
{ "type": "Feature", "properties": { "NPI": "1265616643", "Name": "ARTISAN PROSTHETICS LLC", "Telephone": "6026677827", "City": "PHOENIX", "State2": "AZ", "Zip5": null, "address": "4501 N 32ND ST, PHOENIX, AZ, ", "match": true, "lat": 33.502643225000043, "lon": -112.01297919899997 }, "geometry": { "type": "Point", "coordinates": [ -112.012979198999972, 33.502643225000043 ] } },
{ "type": "Feature", "properties": { "NPI": "1285330696", "Name": "ROADRUNNER PROSTHETICS INC.", "Telephone": "6233524520", "City": "ANTHEM", "State2": "AZ", "Zip5": null, "address": "42212 N 41ST DR, ANTHEM, AZ, ", "match": true, "lat": 33.867529508000075, "lon": -112.14789743299997 }, "geometry": { "type": "Point", "coordinates": [ -112.147897432999969, 33.867529508000075 ] } },
{ "type": "Feature", "properties": { "NPI": "1417227224", "Name": "OPTIMUM REHAB, LLC", "Telephone": "4809935672", "City": "GILBERT", "State2": "AZ", "Zip5": null, "address": "2022 E SMOKE TREE RD, GILBERT, AZ, ", "match": true, "lat": 33.340800071000047, "lon": -111.74633943399999 }, "geometry": { "type": "Point", "coordinates": [ -111.746339434, 33.340800071000047 ] } },
{ "type": "Feature", "properties": { "NPI": "1235203191", "Name": "HANGER PROSTHETICS & ORTHOTICS WEST INC", "Telephone": "9287760823", "City": "PRESCOTT", "State2": "AZ", "Zip5": null, "address": "808 AINSWORTH DR, PRESCOTT, AZ, ", "match": true, "lat": 34.560935024000059, "lon": -112.48007086099994 }, "geometry": { "type": "Point", "coordinates": [ -112.480070860999945, 34.560935024000059 ] } },
{ "type": "Feature", "properties": { "NPI": "1265596399", "Name": "HANGER PROSTHETICS & ORTHOTICS WEST INC", "Telephone": "9285375119", "City": "SHOW LOW", "State2": "AZ", "Zip5": null, "address": "2450 E SHOW LOW LAKE RD, SHOW LOW, AZ, ", "match": true, "lat": 34.201908770000045, "lon": -110.01340471899999 }, "geometry": { "type": "Point", "coordinates": [ -110.013404719, 34.201908770000045 ] } },
{ "type": "Feature", "properties": { "NPI": "1063587863", "Name": "HANGER PROSTHETICS & ORTHOTICS WEST, INC.", "Telephone": "6026850820", "City": "PHOENIX", "State2": "AZ", "Zip5": null, "address": "690 N COFCO CENTER CT, PHOENIX, AZ, ", "match": true, "lat": 33.456488635000028, "lon": -111.98954433699998 }, "geometry": { "type": "Point", "coordinates": [ -111.989544336999984, 33.456488635000028 ] } },
{ "type": "Feature", "properties": { "NPI": "1669459749", "Name": "PONGRATZ ORTHOTICS & PROSTHETICS, INC.", "Telephone": "4802824499", "City": "CHANDLER", "State2": "AZ", "Zip5": null, "address": "595 N DOBSON RD, CHANDLER, AZ, ", "match": true, "lat": 33.313134437000031, "lon": -111.87636265299994 }, "geometry": { "type": "Point", "coordinates": [ -111.876362652999944, 33.313134437000031 ] } },
{ "type": "Feature", "properties": { "NPI": "1801917141", "Name": "PONGRATZ ORTHOTICS & PROSTHETICS, INC.", "Telephone": "5203224499", "City": "TUCSON", "State2": "AZ", "Zip5": null, "address": "4520 E GRANT RD, TUCSON, AZ, ", "match": true, "lat": 32.250617482000052, "lon": -110.89645684499999 }, "geometry": { "type": "Point", "coordinates": [ -110.896456844999989, 32.250617482000052 ] } },
{ "type": "Feature", "properties": { "NPI": "1730284472", "Name": "HANGER PROSTHETICS & ORTHOTICS WEST INC", "Telephone": "4804611940", "City": "MESA", "State2": "AZ", "Zip5": null, "address": "932 W SOUTHERN AVE, MESA, AZ, ", "match": true, "lat": 33.39319166100006, "lon": -111.85136541599996 }, "geometry": { "type": "Point", "coordinates": [ -111.851365415999965, 33.39319166100006 ] } },
{ "type": "Feature", "properties": { "NPI": "1053485946", "Name": "HANGER PROSTHETICS & ORTHOTICS WEST INC", "Telephone": "4803963500", "City": "MESA", "State2": "AZ", "Zip5": null, "address": "301 S POWER RD, MESA, AZ, ", "match": true, "lat": 33.4102461000001, "lon": -111.68453873499999 }, "geometry": { "type": "Point", "coordinates": [ -111.684538735, 33.410246100000052 ] } },
{ "type": "Feature", "properties": { "NPI": "1871667733", "Name": "HANGER PROSTHETICS & ORTHOTICS WEST INC", "Telephone": "9286804673", "City": "LAKE HAVASU CITY", "State2": "AZ", "Zip5": null, "address": "1976 MESQUITE AVE, LAKE HAVASU CITY, AZ, ", "match": true, "lat": 34.479031015000032, "lon": -114.33438256299996 }, "geometry": { "type": "Point", "coordinates": [ -114.334382562999963, 34.479031015000032 ] } },
{ "type": "Feature", "properties": { "NPI": "1962576827", "Name": "HANGER PROSTHETICS & ORTHOTICS WEST INC", "Telephone": "9287182301", "City": "KINGMAN", "State2": "AZ", "Zip5": null, "address": "2704 N STOCKTON HILL RD, KINGMAN, AZ, ", "match": true, "lat": 35.210416243000054, "lon": -114.03481421599997 }, "geometry": { "type": "Point", "coordinates": [ -114.034814215999972, 35.210416243000054 ] } },
{ "type": "Feature", "properties": { "NPI": "1871667766", "Name": "HANGER PROSTHETICS & ORTHOTICS WEST, INC.", "Telephone": "5203169677", "City": "CASA GRANDE", "State2": "AZ", "Zip5": null, "address": "1515 E FLORENCE BLVD, CASA GRANDE, AZ, ", "match": true, "lat": 32.879541857000049, "lon": -111.72049484699994 }, "geometry": { "type": "Point", "coordinates": [ -111.720494846999941, 32.879541857000049 ] } },
{ "type": "Feature", "properties": { "NPI": "1053485912", "Name": "HANGER PROSTHETICS & ORTHOTICS WEST INC", "Telephone": "9287632900", "City": "BULLHEAD CITY", "State2": "AZ", "Zip5": null, "address": "1355 RAMAR RD, BULLHEAD CITY, AZ, ", "match": true, "lat": 35.115218792000064, "lon": -114.60005268299994 }, "geometry": { "type": "Point", "coordinates": [ -114.600052682999944, 35.115218792000064 ] } },
{ "type": "Feature", "properties": { "NPI": "1477146868", "Name": "TUCSON ORTHOTICS & PROSTHETICS, LLC", "Telephone": "5207424406", "City": "TUCSON", "State2": "AZ", "Zip5": null, "address": "7478 N LA CHOLLA BLVD, TUCSON, AZ, ", "match": true, "lat": 32.342506717000049, "lon": -111.01273795199995 }, "geometry": { "type": "Point", "coordinates": [ -111.012737951999952, 32.342506717000049 ] } },
{ "type": "Feature", "properties": { "NPI": "1396804118", "Name": "HANGER PROSTHETICS & ORTHOTICS WEST INC", "Telephone": "5022195470", "City": "ORO VALLEY", "State2": "AZ", "Zip5": null, "address": "12162 N RANCHO VISTOSO BLVD, ORO VALLEY, AZ, ", "match": true, "lat": 32.426714544000049, "lon": -110.96207303899996 }, "geometry": { "type": "Point", "coordinates": [ -110.962073038999961, 32.426714544000049 ] } },
{ "type": "Feature", "properties": { "NPI": "1700973948", "Name": "ADVANCED PROSTHETICS AND ORTHOTICS SOLUTIONS, INC.", "Telephone": "9283140030", "City": "YUMA", "State2": "AZ", "Zip5": null, "address": "2851 S AVENUE B, YUMA, AZ, ", "match": true, "lat": 32.675860837000073, "lon": -114.65026755099996 }, "geometry": { "type": "Point", "coordinates": [ -114.650267550999956, 32.675860837000073 ] } },
{ "type": "Feature", "properties": { "NPI": "1144394008", "Name": "HANGER PROSTHETICS & ORTHOTICS WEST INC", "Telephone": "9286391211", "City": "COTTONWOOD", "State2": "AZ", "Zip5": null, "address": "115 S CANDY LN, COTTONWOOD, AZ, ", "match": true, "lat": 34.738534192000031, "lon": -112.03109321499994 }, "geometry": { "type": "Point", "coordinates": [ -112.031093214999942, 34.738534192000031 ] } },
{ "type": "Feature", "properties": { "NPI": "1487232211", "Name": "CENTER FOR ORTHOPEDIC RESEARCH AND EDUCATION LLC", "Telephone": "9282262900", "City": "FLAGSTAFF", "State2": "AZ", "Zip5": null, "address": "1485 N TURQUOISE DR, FLAGSTAFF, AZ, ", "match": true, "lat": 35.210653509000053, "lon": -111.63993748399997 }, "geometry": { "type": "Point", "coordinates": [ -111.639937483999972, 35.210653509000053 ] } },
{ "type": "Feature", "properties": { "NPI": "1306226022", "Name": "PONGRATZ ORTHOTICS & PROSTHETICS, INC.", "Telephone": "6234448801", "City": "AVONDALE", "State2": "AZ", "Zip5": null, "address": "13020 W RANCHO SANTA FE BLVD, AVONDALE, AZ, ", "match": true, "lat": 33.460929264000072, "lon": -112.33702754799998 }, "geometry": { "type": "Point", "coordinates": [ -112.33702754799998, 33.460929264000072 ] } },
{ "type": "Feature", "properties": { "NPI": "1427179753", "Name": "PONGRATZ ORTHOTICS AND PROSTHETICS, INC.", "Telephone": "6022223032", "City": "PHOENIX", "State2": "AZ", "Zip5": null, "address": "730 N 52ND ST, PHOENIX, AZ, ", "match": true, "lat": 33.456513460000053, "lon": -111.96978021199999 }, "geometry": { "type": "Point", "coordinates": [ -111.969780211999989, 33.456513460000053 ] } },
{ "type": "Feature", "properties": { "NPI": "1417021379", "Name": "HANGER PROSTHETICS & ORTHOTICS WEST INC", "Telephone": "4806148820", "City": "SCOTTSDALE", "State2": "AZ", "Zip5": null, "address": "9023 E DESERT COVE AVE, SCOTTSDALE, AZ, ", "match": true, "lat": 33.585261221000053, "lon": -111.88563634599996 }, "geometry": { "type": "Point", "coordinates": [ -111.885636345999956, 33.585261221000053 ] } },
{ "type": "Feature", "properties": { "NPI": "1912071895", "Name": "HANGER PROSTHETICS & ORTHOTICS WEST INC", "Telephone": "6028430688", "City": "GLENDALE", "State2": "AZ", "Zip5": null, "address": "14021 N 51ST AVE, GLENDALE, AZ, ", "match": true, "lat": 33.612495851000062, "lon": -112.16845235399995 }, "geometry": { "type": "Point", "coordinates": [ -112.168452353999953, 33.612495851000062 ] } },
{ "type": "Feature", "properties": { "NPI": "1881768778", "Name": "HANGER PROSTHETICS & ORTHOTICS INC", "Telephone": "6239772221", "City": "SUN CITY", "State2": "AZ", "Zip5": null, "address": "10615 W THUNDERBIRD BLVD, SUN CITY, AZ, ", "match": true, "lat": 33.605120943000031, "lon": -112.28716641599999 }, "geometry": { "type": "Point", "coordinates": [ -112.287166416, 33.605120943000031 ] } },
{ "type": "Feature", "properties": { "NPI": "1134293020", "Name": "HANGER PROSTHETICS & ORTHOTICS WEST INC", "Telephone": "6234743099", "City": "SUN CITY WEST", "State2": "AZ", "Zip5": null, "address": "13925 W MEEKER BLVD, SUN CITY WEST, AZ, ", "match": true, "lat": 33.65987252900004, "lon": -112.36062114199996 }, "geometry": { "type": "Point", "coordinates": [ -112.360621141999957, 33.65987252900004 ] } },
{ "type": "Feature", "properties": { "NPI": "1205392792", "Name": "CENTER FOR ORTHOPEDIC RESEARCH AND EDUCATION, LLC", "Telephone": "8669742673", "City": "SCOTTSDALE", "State2": "AZ", "Zip5": null, "address": "8952 E DESERT COVE AVE, SCOTTSDALE, AZ, ", "match": true, "lat": 33.585283795000066, "lon": -111.88826733899998 }, "geometry": { "type": "Point", "coordinates": [ -111.888267338999981, 33.585283795000066 ] } },
{ "type": "Feature", "properties": { "NPI": "1144420969", "Name": "CENTER FOR ORTHOPEDIC RESEARCH AND EDUCATION, LLC", "Telephone": "6235375600", "City": "SUN CITY", "State2": "AZ", "Zip5": null, "address": "10494 W THUNDERBIRD BLVD, SUN CITY, AZ, ", "match": true, "lat": 33.604922450000061, "lon": -112.28489446699996 }, "geometry": { "type": "Point", "coordinates": [ -112.284894466999958, 33.604922450000061 ] } },
{ "type": "Feature", "properties": { "NPI": "1790796514", "Name": "HANGER PROSTHETICS & ORTHOTICS WEST, INC.", "Telephone": "7604791866", "City": "ENCINITAS", "State2": "CA", "Zip5": null, "address": "351 SANTA FE DR, ENCINITAS, CA, ", "match": true, "lat": 33.036231152000028, "lon": -117.28500256299998 }, "geometry": { "type": "Point", "coordinates": [ -117.285002562999978, 33.036231152000028 ] } },
{ "type": "Feature", "properties": { "NPI": "1932273810", "Name": "HANGER PROSTHETICS & ORTHOTICS WEST, INC.", "Telephone": "5308233143", "City": "AUBURN", "State2": "CA", "Zip5": null, "address": "1755 GRASS VALLEY HWY, AUBURN, CA, ", "match": true, "lat": 38.927815187000078, "lon": -121.08702233899999 }, "geometry": { "type": "Point", "coordinates": [ -121.087022338999986, 38.927815187000078 ] } },
{ "type": "Feature", "properties": { "NPI": "1588756647", "Name": "HANGER PROSTHETICS & ORTHOTICS WEST, INC.", "Telephone": "9518983614", "City": "CORONA", "State2": "CA", "Zip5": null, "address": "341 MAGNOLIA AVE, CORONA, CA, ", "match": true, "lat": 33.855255631000034, "lon": -117.56095053399997 }, "geometry": { "type": "Point", "coordinates": [ -117.560950533999971, 33.855255631000034 ] } },
{ "type": "Feature", "properties": { "NPI": "1922172808", "Name": "HANGER PROSTHETICS & ORTHOTICS WEST, INC.", "Telephone": "6269740031", "City": "COVINA", "State2": "CA", "Zip5": null, "address": "1270 E GARVEY ST, COVINA, CA, ", "match": true, "lat": 34.070978825000054, "lon": -117.86301300399998 }, "geometry": { "type": "Point", "coordinates": [ -117.863013003999981, 34.070978825000054 ] } },
{ "type": "Feature", "properties": { "NPI": "1669863114", "Name": "PROSTHETIC ARTISTS, INC.", "Telephone": "9164854249", "City": "SACRAMENTO", "State2": "CA", "Zip5": null, "address": "1736 PROFESSIONAL DR, SACRAMENTO, CA, ", "match": true, "lat": 38.596500751000065, "lon": -121.38704774099995 }, "geometry": { "type": "Point", "coordinates": [ -121.387047740999947, 38.596500751000065 ] } },
{ "type": "Feature", "properties": { "NPI": "1740291541", "Name": "HANGER PROSTHETICS & ORTHOTICS WEST, INC.", "Telephone": "5624322987", "City": "LONG BEACH", "State2": "CA", "Zip5": null, "address": "1043 ELM AVE, LONG BEACH, CA, ", "match": true, "lat": 33.779828597000062, "lon": -118.18799152899999 }, "geometry": { "type": "Point", "coordinates": [ -118.187991528999987, 33.779828597000062 ] } },
{ "type": "Feature", "properties": { "NPI": "1023070885", "Name": "VOGUE PROSTHETIC ORTHOTIC CENTER, INC", "Telephone": "8183492230", "City": "NORTHRIDGE", "State2": "CA", "Zip5": null, "address": "18250 ROSCOE BLVD, NORTHRIDGE, CA, ", "match": true, "lat": 34.220812549000073, "lon": -118.53008750499998 }, "geometry": { "type": "Point", "coordinates": [ -118.530087504999983, 34.220812549000073 ] } },
{ "type": "Feature", "properties": { "NPI": "1407957780", "Name": "HANGER PROSTHETICS & ORTHOTICS WEST INC.", "Telephone": "9097921900", "City": "REDLANDS", "State2": "CA", "Zip5": null, "address": "1177 IDAHO ST, REDLANDS, CA, ", "match": true, "lat": 34.069387545000041, "lon": -117.21548669799995 }, "geometry": { "type": "Point", "coordinates": [ -117.21548669799995, 34.069387545000041 ] } },
{ "type": "Feature", "properties": { "NPI": "1144548710", "Name": "CAPSTONE ORTHOPEDIC, INC.", "Telephone": "8314249100", "City": "SALINAS", "State2": "CA", "Zip5": null, "address": "1260 S MAIN ST, SALINAS, CA, ", "match": true, "lat": 36.656137418000071, "lon": -121.66007156599994 }, "geometry": { "type": "Point", "coordinates": [ -121.660071565999942, 36.656137418000071 ] } },
{ "type": "Feature", "properties": { "NPI": "1376568162", "Name": "HUMAN DESIGNS PROSTHETIC AND ORTHOTIC LABORATORY INC.", "Telephone": "6264457797", "City": "ARCADIA", "State2": "CA", "Zip5": null, "address": "49 E FOOTHILL BLVD, ARCADIA, CA, ", "match": true, "lat": 34.150999470000045, "lon": -118.02976871799996 }, "geometry": { "type": "Point", "coordinates": [ -118.029768717999957, 34.150999470000045 ] } },
{ "type": "Feature", "properties": { "NPI": "1376620492", "Name": "CAPSTONE ORTHOPEDIC, INC.", "Telephone": "5596363800", "City": "VISALIA", "State2": "CA", "Zip5": null, "address": "5412 AVENIDA DE LOS ROBLES, VISALIA, CA, ", "match": true, "lat": 36.328681403000076, "lon": -119.35002864699999 }, "geometry": { "type": "Point", "coordinates": [ -119.350028646999988, 36.328681403000076 ] } },
{ "type": "Feature", "properties": { "NPI": "1982057394", "Name": "HANGER PROSTHETICS & ORTHOTICS WEST INC", "Telephone": "9097403820", "City": "ONTARIO", "State2": "CA", "Zip5": null, "address": "2930 E INLAND EMPIRE BLVD, ONTARIO, CA, ", "match": true, "lat": 34.070212391000041, "lon": -117.58942121099994 }, "geometry": { "type": "Point", "coordinates": [ -117.589421210999944, 34.070212391000041 ] } },
{ "type": "Feature", "properties": { "NPI": "1871186981", "Name": "BEVERLY ORTHOPEDIC LABORATORY INC", "Telephone": "3104383645", "City": "LYNWOOD", "State2": "CA", "Zip5": null, "address": "3737 MARTIN LUTHER KING JR BLVD, LYNWOOD, CA, ", "match": true, "lat": 33.92846172600008, "lon": -118.20035350299997 }, "geometry": { "type": "Point", "coordinates": [ -118.200353502999974, 33.92846172600008 ] } },
{ "type": "Feature", "properties": { "NPI": "1942374822", "Name": "HANGER PROSTHETICS & ORTHOTICS WEST INC", "Telephone": "7074440116", "City": "EUREKA", "State2": "CA", "Zip5": null, "address": "2773 HARRIS ST, EUREKA, CA, ", "match": true, "lat": 40.780469788000062, "lon": -124.13642577899998 }, "geometry": { "type": "Point", "coordinates": [ -124.136425778999978, 40.780469788000062 ] } },
{ "type": "Feature", "properties": { "NPI": "1740213362", "Name": "HANGER PROSTHETICS & ORTHOTICS WEST, INC.", "Telephone": "9167846900", "City": "ROSEVILLE", "State2": "CA", "Zip5": null, "address": "1411 SECRET RAVINE PKWY, ROSEVILLE, CA, ", "match": true, "lat": 38.764141080000059, "lon": -121.24410751099998 }, "geometry": { "type": "Point", "coordinates": [ -121.244107510999982, 38.764141080000059 ] } },
{ "type": "Feature", "properties": { "NPI": "1831582220", "Name": "KMY PROSTHETIC & ORTHOTIC INC.", "Telephone": "5592773909", "City": "FRESNO", "State2": "CA", "Zip5": null, "address": "6137 N THESTA ST, FRESNO, CA, ", "match": true, "lat": 36.825313703000063, "lon": -119.78309300899997 }, "geometry": { "type": "Point", "coordinates": [ -119.78309300899997, 36.825313703000063 ] } },
{ "type": "Feature", "properties": { "NPI": "1629084942", "Name": "CAPSTONE ORTHOPEDIC, INC.", "Telephone": "5105371210", "City": "CASTRO VALLEY", "State2": "CA", "Zip5": null, "address": "19845 LAKE CHABOT RD, CASTRO VALLEY, CA, ", "match": true, "lat": 37.699918037000032, "lon": -122.08782273399999 }, "geometry": { "type": "Point", "coordinates": [ -122.087822733999985, 37.699918037000032 ] } },
{ "type": "Feature", "properties": { "NPI": "1033283916", "Name": "HANGER PROSTHETICS & ORTHOTICS WEST, INC.", "Telephone": "2097251295", "City": "MERCED", "State2": "CA", "Zip5": null, "address": "436 E YOSEMITE AVE, MERCED, CA, ", "match": true, "lat": 37.332119727000077, "lon": -120.46367410099998 }, "geometry": { "type": "Point", "coordinates": [ -120.463674100999981, 37.332119727000077 ] } },
{ "type": "Feature", "properties": { "NPI": "1417578121", "Name": "SIERRA ORTHOPEDIC LABORATORY, INC.", "Telephone": "7075289808", "City": "PETALUMA", "State2": "CA", "Zip5": null, "address": "157 LYNCH CREEK WAY, PETALUMA, CA, ", "match": true, "lat": 38.252050890000078, "lon": -122.63423399099997 }, "geometry": { "type": "Point", "coordinates": [ -122.634233990999974, 38.252050890000078 ] } },
{ "type": "Feature", "properties": { "NPI": "1386318541", "Name": "AXIS ORTHOPEDIC INC.", "Telephone": "6267034603", "City": "ALHAMBRA", "State2": "CA", "Zip5": null, "address": "25 S RAYMOND AVE, ALHAMBRA, CA, ", "match": true, "lat": 34.090958258000057, "lon": -118.14500027499997 }, "geometry": { "type": "Point", "coordinates": [ -118.145000274999973, 34.090958258000057 ] } },
{ "type": "Feature", "properties": { "NPI": "1225622921", "Name": "ADVANCED CARE PROSTHETICS AND ORTHOTICS", "Telephone": "3238946888", "City": "LOS ANGELES", "State2": "CA", "Zip5": null, "address": "4929 WILSHIRE BLVD, LOS ANGELES, CA, ", "match": true, "lat": 34.062115885000026, "lon": -118.33806756699994 }, "geometry": { "type": "Point", "coordinates": [ -118.338067566999939, 34.062115885000026 ] } },
{ "type": "Feature", "properties": { "NPI": "1225032162", "Name": "HANGER PROSTHETICS & ORTHOTICS WEST INC", "Telephone": "7146352650", "City": "ANAHEIM", "State2": "CA", "Zip5": null, "address": "1287 N TUSTIN AVE, ANAHEIM, CA, ", "match": true, "lat": 33.862264718000063, "lon": -117.84189839499999 }, "geometry": { "type": "Point", "coordinates": [ -117.841898394999987, 33.862264718000063 ] } },
{ "type": "Feature", "properties": { "NPI": "1144897018", "Name": "BIONICS ORTHOTICS AND PROSTHETICS INC.", "Telephone": "8582709972", "City": "SAN DIEGO", "State2": "CA", "Zip5": null, "address": "3737 MORAGA AVE, SAN DIEGO, CA, ", "match": true, "lat": 32.809245993000047, "lon": -117.21134915099998 }, "geometry": { "type": "Point", "coordinates": [ -117.211349150999979, 32.809245993000047 ] } },
{ "type": "Feature", "properties": { "NPI": "1679140677", "Name": "CAPSTONE ORTHOPEDIC, INC", "Telephone": "5599999999", "City": "MERCED", "State2": "CA", "Zip5": null, "address": "2926 G ST, MERCED, CA, ", "match": true, "lat": 37.312805525000044, "lon": -120.46939432399995 }, "geometry": { "type": "Point", "coordinates": [ -120.46939432399995, 37.312805525000044 ] } },
{ "type": "Feature", "properties": { "NPI": "1720655020", "Name": "BIO ORTHOPEDIC LAB, LLC", "Telephone": "8779446243", "City": "SANTA ANA", "State2": "CA", "Zip5": null, "address": "1530 E EDINGER AVE, SANTA ANA, CA, ", "match": true, "lat": 33.726710261000051, "lon": -117.84978464099999 }, "geometry": { "type": "Point", "coordinates": [ -117.849784640999985, 33.726710261000051 ] } },
{ "type": "Feature", "properties": { "NPI": "1861674574", "Name": "MONTEREY PENNINSULA ORTHOTIC AND PROSTHETIC SERVICES,LLC", "Telephone": "8316553580", "City": "MONTEREY", "State2": "CA", "Zip5": null, "address": "30 RAGSDALE DR, MONTEREY, CA, ", "match": true, "lat": 36.578248248000079, "lon": -121.82344681899997 }, "geometry": { "type": "Point", "coordinates": [ -121.823446818999969, 36.578248248000079 ] } },
{ "type": "Feature", "properties": { "NPI": "1871179085", "Name": "BEVERLY ORTHOPEDIC LABORATORY INC", "Telephone": "2133513556", "City": "LOS ANGELES", "State2": "CA", "Zip5": null, "address": "3000 W OLYMPIC BLVD, LOS ANGELES, CA, ", "match": true, "lat": 34.052621042000055, "lon": -118.30009389899999 }, "geometry": { "type": "Point", "coordinates": [ -118.300093899, 34.052621042000055 ] } },
{ "type": "Feature", "properties": { "NPI": "1396312062", "Name": "BIONICS ORTHOTICS AND PROSTHETICS INC.", "Telephone": "8582709972", "City": "SAN MARCOS", "State2": "CA", "Zip5": null, "address": "1553 GRAND AVE, SAN MARCOS, CA, ", "match": true, "lat": 33.145114557000056, "lon": -117.19771315399998 }, "geometry": { "type": "Point", "coordinates": [ -117.197713153999985, 33.145114557000056 ] } },
{ "type": "Feature", "properties": { "NPI": "1285640979", "Name": "PRECISION ORTHOTICS & PROSTHETICS INC", "Telephone": "2133885847", "City": "HUNTINGTON PARK", "State2": "CA", "Zip5": null, "address": "7143 SEVILLE AVE, HUNTINGTON PARK, CA, ", "match": true, "lat": 33.974458386000038, "lon": -118.22244658799997 }, "geometry": { "type": "Point", "coordinates": [ -118.222446587999968, 33.974458386000038 ] } },
{ "type": "Feature", "properties": { "NPI": "1508845702", "Name": "REDLANDS PROSTHETIC & ORTHOTIC GROUP INC", "Telephone": "9097985853", "City": "REDLANDS", "State2": "CA", "Zip5": null, "address": "1849 W REDLANDS BLVD, REDLANDS, CA, ", "match": true, "lat": 34.062981662000027, "lon": -117.21871893799994 }, "geometry": { "type": "Point", "coordinates": [ -117.218718937999938, 34.062981662000027 ] } },
{ "type": "Feature", "properties": { "NPI": "1821175050", "Name": "CUSTOM ORTHOPEDIC APPLIANCES, INC.", "Telephone": "4155521330", "City": "SAN FRANCISCO", "State2": "CA", "Zip5": null, "address": "340 DIVISADERO ST, SAN FRANCISCO, CA, ", "match": true, "lat": 37.772606083000028, "lon": -122.43726356299999 }, "geometry": { "type": "Point", "coordinates": [ -122.437263562999988, 37.772606083000028 ] } },
{ "type": "Feature", "properties": { "NPI": "1316028848", "Name": "EMPIRE PROSTHETIC & ORTHOTIC CENTER", "Telephone": "7609558855", "City": "VICTORVILLE", "State2": "CA", "Zip5": null, "address": "16471 VICTOR ST, VICTORVILLE, CA, ", "match": true, "lat": 34.521718714000031, "lon": -117.30455248099997 }, "geometry": { "type": "Point", "coordinates": [ -117.304552480999973, 34.521718714000031 ] } },
{ "type": "Feature", "properties": { "NPI": "1578659645", "Name": "RIVERSIDE ARTIFICIAL LIMB & BRACE CORP", "Telephone": "9517813011", "City": "RIVERSIDE", "State2": "CA", "Zip5": null, "address": "4013 BROCKTON AVE, RIVERSIDE, CA, ", "match": true, "lat": 33.982000496000069, "lon": -117.38060726999998 }, "geometry": { "type": "Point", "coordinates": [ -117.380607269999985, 33.982000496000069 ] } },
{ "type": "Feature", "properties": { "NPI": "1255401915", "Name": "HANGER PROSTHETICS & ORTHOTICS INC", "Telephone": "8316495347", "City": "MONTEREY", "State2": "CA", "Zip5": null, "address": "969 PACIFIC ST, MONTEREY, CA, ", "match": true, "lat": 36.589928235000059, "lon": -121.89989514499996 }, "geometry": { "type": "Point", "coordinates": [ -121.899895144999959, 36.589928235000059 ] } },
{ "type": "Feature", "properties": { "NPI": "1124126628", "Name": "ONTARIO PROSTHETICS", "Telephone": "9512474140", "City": "MORENO VALLEY", "State2": "CA", "Zip5": null, "address": "12981 PERRIS BLVD, MORENO VALLEY, CA, ", "match": true, "lat": 33.932102540000074, "lon": -117.22627574899997 }, "geometry": { "type": "Point", "coordinates": [ -117.226275748999967, 33.932102540000074 ] } },
{ "type": "Feature", "properties": { "NPI": "1861405516", "Name": "LYDON'S ORTHOTIC SERVICE", "Telephone": "7074281705", "City": "FAIRFIELD", "State2": "CA", "Zip5": null, "address": "1200 WESTERN STREET, FAIRFIELD, CA, ", "match": true, "lat": 38.274320215000046, "lon": -122.01004554099995 }, "geometry": { "type": "Point", "coordinates": [ -122.010045540999954, 38.274320215000046 ] } },
{ "type": "Feature", "properties": { "NPI": "1265440234", "Name": "PERFORMANCE PROSTHETIC ORTHOTIC CENTER", "Telephone": "3108292322", "City": "SANTA MONICA", "State2": "CA", "Zip5": null, "address": "2820 SANTA MONICA BLVD, SANTA MONICA, CA, ", "match": true, "lat": 34.034937978000073, "lon": -118.47226939699999 }, "geometry": { "type": "Point", "coordinates": [ -118.472269397, 34.034937978000073 ] } },
{ "type": "Feature", "properties": { "NPI": "1205900180", "Name": "HANGER PROSTHETICS & ORTHOTICS WEST INC", "Telephone": "2094662546", "City": "STOCKTON", "State2": "CA", "Zip5": null, "address": "644 E HARDING WAY, STOCKTON, CA, ", "match": true, "lat": 37.968866871000046, "lon": -121.28582663399999 }, "geometry": { "type": "Point", "coordinates": [ -121.285826633999989, 37.968866871000046 ] } },
{ "type": "Feature", "properties": { "NPI": "1861401309", "Name": "RELIANT MEDICAL SUPPLIES & ORTHOTICS, INC.", "Telephone": "3108389922", "City": "LOS ANGELES", "State2": "CA", "Zip5": null, "address": "3679 MOTOR AVE, LOS ANGELES, CA, ", "match": true, "lat": 34.023264754000024, "lon": -118.40610400499997 }, "geometry": { "type": "Point", "coordinates": [ -118.406104004999975, 34.023264754000024 ] } },
{ "type": "Feature", "properties": { "NPI": "1922019769", "Name": "HANGER PROSTHETICS & ORTHOTICS WEST, INC.", "Telephone": "9096865325", "City": "TEMECULA", "State2": "CA", "Zip5": null, "address": "29645 RANCHO CALIFORNIA RD, TEMECULA, CA, ", "match": true, "lat": 33.506508551000024, "lon": -117.14290597399997 }, "geometry": { "type": "Point", "coordinates": [ -117.142905973999973, 33.506508551000024 ] } },
{ "type": "Feature", "properties": { "NPI": "1306915749", "Name": "SAN FRANCISCO PROSTHETIC ORTHOTIC SERVICE, INC.", "Telephone": "4158614146", "City": "SAN FRANCISCO", "State2": "CA", "Zip5": null, "address": "330 DIVISADERO ST, SAN FRANCISCO, CA, ", "match": true, "lat": 37.772526489000029, "lon": -122.43724702399999 }, "geometry": { "type": "Point", "coordinates": [ -122.437247023999987, 37.772526489000029 ] } },
{ "type": "Feature", "properties": { "NPI": "1588738462", "Name": "HANGER PROSTHETICS & ORTHOTICS WEST INC", "Telephone": "5302437622", "City": "REDDING", "State2": "CA", "Zip5": null, "address": "1477 LINCOLN ST, REDDING, CA, ", "match": true, "lat": 40.578635547000033, "lon": -122.3891697 }, "geometry": { "type": "Point", "coordinates": [ -122.389169699999968, 40.578635547000033 ] } },
{ "type": "Feature", "properties": { "NPI": "1073738563", "Name": "WEST COAST ORTHOTIC AND PROSTHETIC", "Telephone": "2093331148", "City": "LODI", "State2": "CA", "Zip5": null, "address": "1745 W KETTLEMAN LN, LODI, CA, ", "match": true, "lat": 38.11602395500006, "lon": -121.25117713199995 }, "geometry": { "type": "Point", "coordinates": [ -121.251177131999953, 38.11602395500006 ] } },
{ "type": "Feature", "properties": { "NPI": "1225253578", "Name": "SIERRA ORTHOPEDIC LAB", "Telephone": "2098458231", "City": "OAKDALE", "State2": "CA", "Zip5": null, "address": "693 HI TECH PKWY, OAKDALE, CA, ", "match": true, "lat": 37.751753015000077, "lon": -120.83948569699999 }, "geometry": { "type": "Point", "coordinates": [ -120.839485696999986, 37.751753015000077 ] } },
{ "type": "Feature", "properties": { "NPI": "1083756993", "Name": "VALLEY INSTITUTE OF PROSTHETICS & ORTHOTICS, INC", "Telephone": "6619490504", "City": "LANCASTER", "State2": "CA", "Zip5": null, "address": "44404 16TH ST W, LANCASTER, CA, ", "match": true, "lat": 34.689776485000039, "lon": -118.15846955799998 }, "geometry": { "type": "Point", "coordinates": [ -118.158469557999979, 34.689776485000039 ] } },
{ "type": "Feature", "properties": { "NPI": "1023182904", "Name": "HANGER PROSTHETICS & ORTHOTICS WEST INC", "Telephone": "5306621117", "City": "WOODLAND", "State2": "CA", "Zip5": null, "address": "155 MAIN ST, WOODLAND, CA, ", "match": true, "lat": 38.67753190600007, "lon": -121.78077756 }, "geometry": { "type": "Point", "coordinates": [ -121.78077756, 38.67753190600007 ] } },
{ "type": "Feature", "properties": { "NPI": "1093857740", "Name": "APPLIED ORTHOTIC SYSTEMS LTD", "Telephone": "7145495018", "City": "SANTA ANA", "State2": "CA", "Zip5": null, "address": "2414 S FAIRVIEW ST, SANTA ANA, CA, ", "match": true, "lat": 33.714719643000024, "lon": -117.90792566999994 }, "geometry": { "type": "Point", "coordinates": [ -117.907925669999941, 33.714719643000024 ] } },
{ "type": "Feature", "properties": { "NPI": "1538220587", "Name": "HANGER PROSTHETICS & ORTHOTICS WEST INC.", "Telephone": "9165361121", "City": "CARMICHAEL", "State2": "CA", "Zip5": null, "address": "6403 COYLE AVE, CARMICHAEL, CA, ", "match": true, "lat": 38.668002055000045, "lon": -121.31473660699999 }, "geometry": { "type": "Point", "coordinates": [ -121.314736606999986, 38.668002055000045 ] } },
{ "type": "Feature", "properties": { "NPI": "1720146327", "Name": "HANGER PROSTHETICS & ORTHOTICS WEST INC", "Telephone": "9164522218", "City": "SACRAMENTO", "State2": "CA", "Zip5": null, "address": "1256 32ND ST, SACRAMENTO, CA, ", "match": true, "lat": 38.569931489000055, "lon": -121.46444350699994 }, "geometry": { "type": "Point", "coordinates": [ -121.464443506999942, 38.569931489000055 ] } },
{ "type": "Feature", "properties": { "NPI": "1306911227", "Name": "ANCHOR ORTHOTICS & PROSTHETICS", "Telephone": "9164840685", "City": "SACRAMENTO", "State2": "CA", "Zip5": null, "address": "3838 WATT AVE, SACRAMENTO, CA, ", "match": true, "lat": 38.635269680000079, "lon": -121.38292283899995 }, "geometry": { "type": "Point", "coordinates": [ -121.382922838999946, 38.635269680000079 ] } },
{ "type": "Feature", "properties": { "NPI": "1174697056", "Name": "HANGER PROSTHETICS & ORTHOTICS WEST INC", "Telephone": "2093689683", "City": "JACKSON", "State2": "CA", "Zip5": null, "address": "813 COURT ST, JACKSON, CA, ", "match": true, "lat": 38.352869463000047, "lon": -120.76721728699999 }, "geometry": { "type": "Point", "coordinates": [ -120.767217287, 38.352869463000047 ] } },
{ "type": "Feature", "properties": { "NPI": "1265506141", "Name": "HANGER PROSTHETICS & ORTHOTICS WEST INC", "Telephone": "2093689683", "City": "LODI", "State2": "CA", "Zip5": null, "address": "918 S FAIRMONT AVE, LODI, CA, ", "match": true, "lat": 38.122013070000037, "lon": -121.28575843799996 }, "geometry": { "type": "Point", "coordinates": [ -121.285758437999959, 38.122013070000037 ] } },
{ "type": "Feature", "properties": { "NPI": "1730253881", "Name": "HANGER PROSTHETICS & ORTHOTICS INC", "Telephone": "4083585366", "City": "SAN JOSE", "State2": "CA", "Zip5": null, "address": "2505 SAMARITAN DR, SAN JOSE, CA, ", "match": true, "lat": 37.251497055000073, "lon": -121.94997497299994 }, "geometry": { "type": "Point", "coordinates": [ -121.949974972999939, 37.251497055000073 ] } },
{ "type": "Feature", "properties": { "NPI": "1073651139", "Name": "PREMIER ORTHOTIC AND PROSTHETIC SERVICES INC", "Telephone": "6264309253", "City": "WEST COVINA", "State2": "CA", "Zip5": null, "address": "855 N LARK ELLEN AVE, WEST COVINA, CA, ", "match": true, "lat": 34.084748598000033, "lon": -117.91656679599998 }, "geometry": { "type": "Point", "coordinates": [ -117.916566795999984, 34.084748598000033 ] } },
{ "type": "Feature", "properties": { "NPI": "1285269035", "Name": "CROWN CITY ORTHOTICS AND PROSTHETICS LLC.", "Telephone": "6264312890", "City": "PASADENA", "State2": "CA", "Zip5": null, "address": "2824 E FOOTHILL BLVD, PASADENA, CA, ", "match": true, "lat": 34.149916995000069, "lon": -118.09225498199999 }, "geometry": { "type": "Point", "coordinates": [ -118.092254981999986, 34.149916995000069 ] } },
{ "type": "Feature", "properties": { "NPI": "1467797191", "Name": "SPECTRUM ORTHOTICS AND PROSTHETICS, INC.", "Telephone": "5304188338", "City": "YUBA CITY", "State2": "CA", "Zip5": null, "address": "887 PLUMAS ST, YUBA CITY, CA, ", "match": true, "lat": 39.141843635000043, "lon": -121.61769555099994 }, "geometry": { "type": "Point", "coordinates": [ -121.61769555099994, 39.141843635000043 ] } },
{ "type": "Feature", "properties": { "NPI": "1073567467", "Name": "PROFESSIONAL ORTHOPEDIC SYSTEMS OF AUBURN", "Telephone": "5308852712", "City": "AUBURN", "State2": "CA", "Zip5": null, "address": "1237 GRASS VALLEY HWY, AUBURN, CA, ", "match": true, "lat": 38.923637297000028, "lon": -121.08369542299999 }, "geometry": { "type": "Point", "coordinates": [ -121.083695423, 38.923637297000028 ] } },
{ "type": "Feature", "properties": { "NPI": "1164013561", "Name": "PROFESSIONAL ORTHOPEDIC SYSTEMS OF SACRAMENTO, LLC", "Telephone": "9163313537", "City": "SACRAMENTO", "State2": "CA", "Zip5": null, "address": "5601 66TH AVE, SACRAMENTO, CA, ", "match": true, "lat": 38.492447144000039, "lon": -121.44000889399996 }, "geometry": { "type": "Point", "coordinates": [ -121.440008893999959, 38.492447144000039 ] } },
{ "type": "Feature", "properties": { "NPI": "1821083163", "Name": "PROFESSIONAL ORTHOPEDIC SYSTEMS OF SACRAMENTO, LLC", "Telephone": "9163313537", "City": "SACRAMENTO", "State2": "CA", "Zip5": null, "address": "5049 COLLEGE OAK DR, SACRAMENTO, CA, ", "match": true, "lat": 38.658725244000038, "lon": -121.35054162599999 }, "geometry": { "type": "Point", "coordinates": [ -121.350541626, 38.658725244000038 ] } },
{ "type": "Feature", "properties": { "NPI": "1639404015", "Name": "SOUTHERN CALIFORNIA PROSTHETICS, INC.", "Telephone": "9498925338", "City": "SANTA ANA", "State2": "CA", "Zip5": null, "address": "1801 PARKCOURT PL, SANTA ANA, CA, ", "match": true, "lat": 33.749885621000033, "lon": -117.84225827499995 }, "geometry": { "type": "Point", "coordinates": [ -117.842258274999949, 33.749885621000033 ] } },
{ "type": "Feature", "properties": { "NPI": "1891873006", "Name": "LIMB CRAFT, INC.", "Telephone": "7146260417", "City": "FULLERTON", "State2": "CA", "Zip5": null, "address": "810 E CHAPMAN AVE, FULLERTON, CA, ", "match": true, "lat": 33.874045908000028, "lon": -117.91144945299999 }, "geometry": { "type": "Point", "coordinates": [ -117.911449452999989, 33.874045908000028 ] } },
{ "type": "Feature", "properties": { "NPI": "1760119168", "Name": "CENTRAL VALLEY ORTHOTIC AND PROSTHETIC", "Telephone": "5594263001", "City": "FRESNO", "State2": "CA", "Zip5": null, "address": "2039 N FINE AVE, FRESNO, CA, ", "match": true, "lat": 36.769149679000066, "lon": -119.72844099699995 }, "geometry": { "type": "Point", "coordinates": [ -119.72844099699995, 36.769149679000066 ] } },
{ "type": "Feature", "properties": { "NPI": "1386930873", "Name": "DIABLO PROSTHETICS & ORTHOTICS, INC", "Telephone": "9257559507", "City": "ANTIOCH", "State2": "CA", "Zip5": null, "address": "2157 COUNTRY HILLS DR, ANTIOCH, CA, ", "match": true, "lat": 37.97024519100006, "lon": -121.78399745299998 }, "geometry": { "type": "Point", "coordinates": [ -121.783997452999984, 37.97024519100006 ] } },
{ "type": "Feature", "properties": { "NPI": "1639173537", "Name": "SPECTRUM PROSTHETICS & ORTHOTICS OF REDDING INC", "Telephone": "5302434500", "City": "REDDING", "State2": "CA", "Zip5": null, "address": "1844 SOUTH ST, REDDING, CA, ", "match": true, "lat": 40.57945974900008, "lon": -122.39488809199997 }, "geometry": { "type": "Point", "coordinates": [ -122.394888091999974, 40.57945974900008 ] } },
{ "type": "Feature", "properties": { "NPI": "1487665212", "Name": "HANGER PROSTHETICS & ORTHOTICS WEST, INC.", "Telephone": "9517813011", "City": "RIVERSIDE", "State2": "CA", "Zip5": null, "address": "6840 INDIANA AVE, RIVERSIDE, CA, ", "match": true, "lat": 33.94252741400004, "lon": -117.39257865599996 }, "geometry": { "type": "Point", "coordinates": [ -117.392578655999955, 33.94252741400004 ] } },
{ "type": "Feature", "properties": { "NPI": "1629142500", "Name": "HANGER PROSTHETICS & ORTHOTICS WEST INC", "Telephone": "7144643436", "City": "TUSTIN", "State2": "CA", "Zip5": null, "address": "1101 BRYAN AVE, TUSTIN, CA, ", "match": true, "lat": 33.742828804000055, "lon": -117.81511654999997 }, "geometry": { "type": "Point", "coordinates": [ -117.815116549999971, 33.742828804000055 ] } },
{ "type": "Feature", "properties": { "NPI": "1629350178", "Name": "STANCE PROSTHETICS & ORTHOTICS LLC", "Telephone": "7148523756", "City": "SANTA ANA", "State2": "CA", "Zip5": null, "address": "1125 E 17TH ST, SANTA ANA, CA, ", "match": true, "lat": 33.760044828000048, "lon": -117.85519424299997 }, "geometry": { "type": "Point", "coordinates": [ -117.855194242999971, 33.760044828000048 ] } },
{ "type": "Feature", "properties": { "NPI": "1679976393", "Name": "NORELL PROSTHETICS ORTHOTICS INC.", "Telephone": "5107709010", "City": "FREMONT", "State2": "CA", "Zip5": null, "address": "48521 WARM SPRINGS BLVD, FREMONT, CA, ", "match": true, "lat": 37.46860040100006, "lon": -121.91736657399997 }, "geometry": { "type": "Point", "coordinates": [ -121.917366573999971, 37.46860040100006 ] } },
{ "type": "Feature", "properties": { "NPI": "1649638701", "Name": "NORELL PROSTHETICS ORTHOTICS INC.", "Telephone": "5107709010", "City": "SAN DIEGO", "State2": "CA", "Zip5": null, "address": "5466 COMPLEX ST, SAN DIEGO, CA, ", "match": true, "lat": 32.833475948000057, "lon": -117.13467083999996 }, "geometry": { "type": "Point", "coordinates": [ -117.134670839999956, 32.833475948000057 ] } },
{ "type": "Feature", "properties": { "NPI": "1447594700", "Name": "PETER HARSCH PROSTHETICS, LLC", "Telephone": "8584040733", "City": "SAN DIEGO", "State2": "CA", "Zip5": null, "address": "5995 MIRA MESA BLVD, SAN DIEGO, CA, ", "match": true, "lat": 32.898010421000038, "lon": -117.19163401699996 }, "geometry": { "type": "Point", "coordinates": [ -117.191634016999956, 32.898010421000038 ] } },
{ "type": "Feature", "properties": { "NPI": "1215945514", "Name": "HANGER PROSTHETICS & ORTHOTICS WEST, INC.", "Telephone": "5104906400", "City": "FREMONT", "State2": "CA", "Zip5": null, "address": "3155 KEARNEY ST, FREMONT, CA, ", "match": true, "lat": 37.54920792300004, "lon": -121.97465880099998 }, "geometry": { "type": "Point", "coordinates": [ -121.974658800999975, 37.54920792300004 ] } },
{ "type": "Feature", "properties": { "NPI": "1720076912", "Name": "AVOP-ANTELOPE VALLEY ORTHOTICS & PROSTHETICS", "Telephone": "6612670772", "City": "PALMDALE", "State2": "CA", "Zip5": null, "address": "525 COMMERCE AVE, PALMDALE, CA, ", "match": true, "lat": 34.589642188000028, "lon": -118.14098355499999 }, "geometry": { "type": "Point", "coordinates": [ -118.140983555, 34.589642188000028 ] } },
{ "type": "Feature", "properties": { "NPI": "1871668566", "Name": "ALLIANCE PROSTHETICS & ORTHOTICS, INC.", "Telephone": "5629451111", "City": "WHITTIER", "State2": "CA", "Zip5": null, "address": "12458 WASHINGTON BLVD, WHITTIER, CA, ", "match": true, "lat": 33.967604906000076, "lon": -118.04628648699997 }, "geometry": { "type": "Point", "coordinates": [ -118.046286486999975, 33.967604906000076 ] } },
{ "type": "Feature", "properties": { "NPI": "1750455630", "Name": "HANGER PROSTHETICS & ORTHOTICS WEST INC", "Telephone": "9257541804", "City": "ANTIOCH", "State2": "CA", "Zip5": null, "address": "4849 LONE TREE WAY, ANTIOCH, CA, ", "match": true, "lat": 37.964373463000072, "lon": -121.77461221399994 }, "geometry": { "type": "Point", "coordinates": [ -121.774612213999944, 37.964373463000072 ] } },
{ "type": "Feature", "properties": { "NPI": "1124738257", "Name": "ABLE ORTHO CLINIC INC", "Telephone": "9515318035", "City": "CORONA", "State2": "CA", "Zip5": null, "address": "1411 RIMPAU AVE, CORONA, CA, ", "match": true, "lat": 33.869900854000036, "lon": -117.54978776499996 }, "geometry": { "type": "Point", "coordinates": [ -117.549787764999962, 33.869900854000036 ] } },
{ "type": "Feature", "properties": { "NPI": "1295746113", "Name": "HANGER PROSTHETICS & ORTHOTICS WEST, INC.", "Telephone": "6194251835", "City": "CHULA VISTA", "State2": "CA", "Zip5": null, "address": "450 4TH AVE, CHULA VISTA, CA, ", "match": true, "lat": 32.634774505000053, "lon": -117.08188483399999 }, "geometry": { "type": "Point", "coordinates": [ -117.081884834, 32.634774505000053 ] } },
{ "type": "Feature", "properties": { "NPI": "1841398047", "Name": "SPECTRUM ORTHOTICS AND PROSTHETICS, INC", "Telephone": "5308921017", "City": "CHICO", "State2": "CA", "Zip5": null, "address": "2170 ESPLANADE, CHICO, CA, ", "match": true, "lat": 39.749955579000073, "lon": -121.85464364599994 }, "geometry": { "type": "Point", "coordinates": [ -121.854643645999943, 39.749955579000073 ] } },
{ "type": "Feature", "properties": { "NPI": "1003804071", "Name": "R AND J PROSTHETIC APPLIANCE CO. INC.", "Telephone": "8056434063", "City": "VENTURA", "State2": "CA", "Zip5": null, "address": "2407 E MAIN ST, VENTURA, CA, ", "match": true, "lat": 34.275934537000069, "lon": -119.26403951899999 }, "geometry": { "type": "Point", "coordinates": [ -119.264039519, 34.275934537000069 ] } },
{ "type": "Feature", "properties": { "NPI": "1871023515", "Name": "ABI P&O INC", "Telephone": "6192855040", "City": "SAN DIEGO", "State2": "CA", "Zip5": null, "address": "6190 FAIRMOUNT AVE, SAN DIEGO, CA, ", "match": true, "lat": 32.788742365000076, "lon": -117.10148805299997 }, "geometry": { "type": "Point", "coordinates": [ -117.101488052999969, 32.788742365000076 ] } },
{ "type": "Feature", "properties": { "NPI": "1720518798", "Name": "PROSTHETIC & ORTHOTIC GROUP ORANGE COUNTY, LLC", "Telephone": "9492422237", "City": "MISSION VIEJO", "State2": "CA", "Zip5": null, "address": "26300 LA ALAMEDA, MISSION VIEJO, CA, ", "match": true, "lat": 33.565167884000061, "lon": -117.66641663399997 }, "geometry": { "type": "Point", "coordinates": [ -117.666416633999972, 33.565167884000061 ] } },
{ "type": "Feature", "properties": { "NPI": "1346569175", "Name": "ESSENTIAL ORTHOTICS & PROSTHETICS", "Telephone": "6617233700", "City": "PALMDALE", "State2": "CA", "Zip5": null, "address": "41758 12TH ST W, PALMDALE, CA, ", "match": true, "lat": 34.642242675000034, "lon": -118.15133503399994 }, "geometry": { "type": "Point", "coordinates": [ -118.151335033999942, 34.642242675000034 ] } },
{ "type": "Feature", "properties": { "NPI": "1013173848", "Name": "SPECTRUM PROSTHETICS & ORTHOTICS OF REDDING, INC.", "Telephone": "5305282200", "City": "RED BLUFF", "State2": "CA", "Zip5": null, "address": "1399 MONTGOMERY RD, RED BLUFF, CA, ", "match": true, "lat": 40.156447153000045, "lon": -122.225146043 }, "geometry": { "type": "Point", "coordinates": [ -122.225146043, 40.156447153000045 ] } },
{ "type": "Feature", "properties": { "NPI": "1790092237", "Name": "HANGER PROSTHETICS & ORTHOTICS WEST INC", "Telephone": "9497707331", "City": "MISSION VIEJO", "State2": "CA", "Zip5": null, "address": "25982 PALA, MISSION VIEJO, CA, ", "match": true, "lat": 33.619877574000043, "lon": -117.67727434399995 }, "geometry": { "type": "Point", "coordinates": [ -117.677274343999954, 33.619877574000043 ] } },
{ "type": "Feature", "properties": { "NPI": "1720573496", "Name": "HANGER PROSTHETICS & ORTHOTICS WEST INC", "Telephone": "5622068032", "City": "LONG BEACH", "State2": "CA", "Zip5": null, "address": "500 E WILLOW ST, LONG BEACH, CA, ", "match": true, "lat": 33.804426123000042, "lon": -118.18709242599999 }, "geometry": { "type": "Point", "coordinates": [ -118.187092426, 33.804426123000042 ] } },
{ "type": "Feature", "properties": { "NPI": "1225032576", "Name": "HANGER PROSTHETICS & ORTHOTICS WEST INC", "Telephone": "9497227101", "City": "NEWPORT BEACH", "State2": "CA", "Zip5": null, "address": "351 HOSPITAL RD, NEWPORT BEACH, CA, ", "match": true, "lat": 33.6257142000001, "lon": -117.92847700299995 }, "geometry": { "type": "Point", "coordinates": [ -117.928477002999955, 33.625714200000061 ] } },
{ "type": "Feature", "properties": { "NPI": "1306840392", "Name": "HANGER PROSTHETICS & ORTHOTICS WEST INC", "Telephone": "7149371998", "City": "ORANGE", "State2": "CA", "Zip5": null, "address": "623 N MAIN ST, ORANGE, CA, ", "match": true, "lat": 33.796462615000053, "lon": -117.86651414 }, "geometry": { "type": "Point", "coordinates": [ -117.86651414, 33.796462615000053 ] } },
{ "type": "Feature", "properties": { "NPI": "1760968796", "Name": "HANGER PROSTHETICS & ORTHOTICS WEST INC", "Telephone": "5622068025", "City": "LAKEWOOD", "State2": "CA", "Zip5": null, "address": "3650 E SOUTH ST, LAKEWOOD, CA, ", "match": true, "lat": 33.860210118000055, "lon": -118.14999424899997 }, "geometry": { "type": "Point", "coordinates": [ -118.149994248999974, 33.860210118000055 ] } },
{ "type": "Feature", "properties": { "NPI": "1851784672", "Name": "HANGER PROSTHETICS & ORTHOTICS WEST INC", "Telephone": "7143739888", "City": "WESTMINSTER", "State2": "CA", "Zip5": null, "address": "14450 HOOVER ST, WESTMINSTER, CA, ", "match": true, "lat": 33.751906571000063, "lon": -117.99833384099998 }, "geometry": { "type": "Point", "coordinates": [ -117.998333840999976, 33.751906571000063 ] } },
{ "type": "Feature", "properties": { "NPI": "1689750820", "Name": "HANGER PROSTHETICS & ORTHOTICS WEST INC", "Telephone": "8056877508", "City": "SANTA BARBARA", "State2": "CA", "Zip5": null, "address": "3010 STATE ST, SANTA BARBARA, CA, ", "match": true, "lat": 34.440373679000061, "lon": -119.72856702299998 }, "geometry": { "type": "Point", "coordinates": [ -119.728567022999982, 34.440373679000061 ] } },
{ "type": "Feature", "properties": { "NPI": "1033295274", "Name": "HANGER PROSTHETICS & ORTHOTICS WEST INC", "Telephone": "8059258290", "City": "SANTA MARIA", "State2": "CA", "Zip5": null, "address": "2345 S BROADWAY, SANTA MARIA, CA, ", "match": true, "lat": 34.9179325000001, "lon": -120.43610178999995 }, "geometry": { "type": "Point", "coordinates": [ -120.436101789999952, 34.917932500000063 ] } },
{ "type": "Feature", "properties": { "NPI": "1407140726", "Name": "HANGER PROSTHETICS & ORTHOTICS WEST INC", "Telephone": "8053390670", "City": "VENTURA", "State2": "CA", "Zip5": null, "address": "1645 DONLON ST, VENTURA, CA, ", "match": true, "lat": 34.259005918000071, "lon": -119.23653272299998 }, "geometry": { "type": "Point", "coordinates": [ -119.236532722999982, 34.259005918000071 ] } },
{ "type": "Feature", "properties": { "NPI": "1750035127", "Name": "OEI PROSTHETICS AND ORTHOTICS", "Telephone": "8189943797", "City": "VAN NUYS", "State2": "CA", "Zip5": null, "address": "15216 VANOWEN ST, VAN NUYS, CA, ", "match": true, "lat": 34.193915512000046, "lon": -118.46447445999996 }, "geometry": { "type": "Point", "coordinates": [ -118.464474459999963, 34.193915512000046 ] } },
{ "type": "Feature", "properties": { "NPI": "1851465736", "Name": "HANGER PROSTHETICS & ORTHOTICS WEST INC", "Telephone": "2095324497", "City": "SONORA", "State2": "CA", "Zip5": null, "address": "13771 MONO WAY, SONORA, CA, ", "match": true, "lat": 37.977842974000055, "lon": -120.34124140499995 }, "geometry": { "type": "Point", "coordinates": [ -120.341241404999948, 37.977842974000055 ] } },
{ "type": "Feature", "properties": { "NPI": "1831263714", "Name": "HANGER PROSTHETICS & ORTHOTICS WEST, INC.", "Telephone": "3103737700", "City": "TORRANCE", "State2": "CA", "Zip5": null, "address": "23451 MADISON ST, TORRANCE, CA, ", "match": true, "lat": 33.812069592000057, "lon": -118.34770472199995 }, "geometry": { "type": "Point", "coordinates": [ -118.347704721999946, 33.812069592000057 ] } },
{ "type": "Feature", "properties": { "NPI": "1356415236", "Name": "HANGER PROSTHETICS & ORTHOTICS WEST INC", "Telephone": "4158837221", "City": "MODESTO", "State2": "CA", "Zip5": null, "address": "1707 MCHENRY AVE, MODESTO, CA, ", "match": true, "lat": 37.668978509000056, "lon": -120.99399799699995 }, "geometry": { "type": "Point", "coordinates": [ -120.993997996999951, 37.668978509000056 ] } },
{ "type": "Feature", "properties": { "NPI": "1366713315", "Name": "ORTHO ENGINEERING INC.", "Telephone": "3106040000", "City": "LYNWOOD", "State2": "CA", "Zip5": null, "address": "3680 E IMPERIAL HWY, LYNWOOD, CA, ", "match": true, "lat": 33.931980975000045, "lon": -118.20163051099996 }, "geometry": { "type": "Point", "coordinates": [ -118.201630510999962, 33.931980975000045 ] } },
{ "type": "Feature", "properties": { "NPI": "1568662260", "Name": "HANGER PROSTHETICS & ORTHOTICS WEST, INC.", "Telephone": "9169845606", "City": "FOLSOM", "State2": "CA", "Zip5": null, "address": "1743 CREEKSIDE DR, FOLSOM, CA, ", "match": true, "lat": 38.671878069000059, "lon": -121.14033388599995 }, "geometry": { "type": "Point", "coordinates": [ -121.140333885999951, 38.671878069000059 ] } },
{ "type": "Feature", "properties": { "NPI": "1679647556", "Name": "HANGER PROSTHETICS & ORTHOTICS WEST INC", "Telephone": "9164525724", "City": "SACRAMENTO", "State2": "CA", "Zip5": null, "address": "1248 32ND ST, SACRAMENTO, CA, ", "match": true, "lat": 38.57001335700005, "lon": -121.46440849899994 }, "geometry": { "type": "Point", "coordinates": [ -121.464408498999944, 38.57001335700005 ] } },
{ "type": "Feature", "properties": { "NPI": "1760556641", "Name": "HANGER PROSTHETICS & ORTHOTICS WEST INC", "Telephone": "9168639494", "City": "FAIR OAKS", "State2": "CA", "Zip5": null, "address": "5525 DEWEY DR, FAIR OAKS, CA, ", "match": true, "lat": 38.666283966000037, "lon": -121.30864156599995 }, "geometry": { "type": "Point", "coordinates": [ -121.308641565999949, 38.666283966000037 ] } },
{ "type": "Feature", "properties": { "NPI": "1255329736", "Name": "ANACAPA PROSTHETIC AND ORTHOTIC LAB", "Telephone": "8056581388", "City": "VENTURA", "State2": "CA", "Zip5": null, "address": "2300 KNOLL DR, VENTURA, CA, ", "match": true, "lat": 34.254472218000046, "lon": -119.22044959599998 }, "geometry": { "type": "Point", "coordinates": [ -119.22044959599998, 34.254472218000046 ] } },
{ "type": "Feature", "properties": { "NPI": "1215925797", "Name": "INLAND ARTIFICIAL LIMB & BRACE", "Telephone": "9517341835", "City": "NORCO", "State2": "CA", "Zip5": null, "address": "680 PARKRIDGE AVE, NORCO, CA, ", "match": true, "lat": 33.898076867000043, "lon": -117.56798861 }, "geometry": { "type": "Point", "coordinates": [ -117.567988609999986, 33.898076867000043 ] } },
{ "type": "Feature", "properties": { "NPI": "1841561503", "Name": "ORTHO ENGINEERING INC.", "Telephone": "5626936666", "City": "WHITTIER", "State2": "CA", "Zip5": null, "address": "12543 LAMBERT RD, WHITTIER, CA, ", "match": true, "lat": 33.964580498000032, "lon": -118.04635388899999 }, "geometry": { "type": "Point", "coordinates": [ -118.046353888999988, 33.964580498000032 ] } },
{ "type": "Feature", "properties": { "NPI": "1851389563", "Name": "UPRIGHT PROSTHETICS AND ORTHOTICS", "Telephone": "5624610334", "City": "BELLFLOWER", "State2": "CA", "Zip5": null, "address": "10132 ARTESIA PL, BELLFLOWER, CA, ", "match": true, "lat": 33.874845866000044, "lon": -118.11856287799998 }, "geometry": { "type": "Point", "coordinates": [ -118.118562877999977, 33.874845866000044 ] } },
{ "type": "Feature", "properties": { "NPI": "1528069341", "Name": "PAULS ORTHOPEDIC APPLIANCES", "Telephone": "4155844040", "City": "SAN FRANCISCO", "State2": "CA", "Zip5": null, "address": "2407 OCEAN AVE, SAN FRANCISCO, CA, ", "match": true, "lat": 37.730165859000067, "lon": -122.46987560399998 }, "geometry": { "type": "Point", "coordinates": [ -122.469875603999981, 37.730165859000067 ] } },
{ "type": "Feature", "properties": { "NPI": "1295077865", "Name": "STREAMLINE ORTHOPEDIC, INC.", "Telephone": "9164881478", "City": "ROSEVILLE", "State2": "CA", "Zip5": null, "address": "125 ASCOT DR, ROSEVILLE, CA, ", "match": true, "lat": 38.742509812000037, "lon": -121.26939725799997 }, "geometry": { "type": "Point", "coordinates": [ -121.269397257999969, 38.742509812000037 ] } },
{ "type": "Feature", "properties": { "NPI": "1710051693", "Name": "HANGER PROSTHETICS & ORTHOTICS WEST INC", "Telephone": "8314229646", "City": "SALINAS", "State2": "CA", "Zip5": null, "address": "535 E ROMIE LN, SALINAS, CA, ", "match": true, "lat": 36.660011668000038, "lon": -121.64634985099997 }, "geometry": { "type": "Point", "coordinates": [ -121.646349850999968, 36.660011668000038 ] } },
{ "type": "Feature", "properties": { "NPI": "1871063420", "Name": "OTTO BOCK ORTHOPEDIC SERVICES LLC", "Telephone": "8007368276", "City": "SACRAMENTO", "State2": "CA", "Zip5": null, "address": "3800 WATT AVENUE, SACRAMENTO, CA, ", "match": true, "lat": 38.634173195000074, "lon": -121.38291842199999 }, "geometry": { "type": "Point", "coordinates": [ -121.382918421999989, 38.634173195000074 ] } },
{ "type": "Feature", "properties": { "NPI": "1700026564", "Name": "STELLAR PROSTHETICS AND ORTHOTICS", "Telephone": "9099066624", "City": "ONTARIO", "State2": "CA", "Zip5": null, "address": "2930 INLAND EMPIRE BLVD, ONTARIO, CA, ", "match": true, "lat": 34.070212764000075, "lon": -117.58946078199995 }, "geometry": { "type": "Point", "coordinates": [ -117.589460781999946, 34.070212764000075 ] } },
{ "type": "Feature", "properties": { "NPI": "1225026883", "Name": "ORTHOPEDICS INTERNATIONAL INC.", "Telephone": "3102123288", "City": "TORRANCE", "State2": "CA", "Zip5": null, "address": "1108 SARTORI AVE, TORRANCE, CA, ", "match": true, "lat": 33.83669178100007, "lon": -118.31728719399996 }, "geometry": { "type": "Point", "coordinates": [ -118.31728719399996, 33.83669178100007 ] } },
{ "type": "Feature", "properties": { "NPI": "1649204801", "Name": "TEMECULA VALLEY ORTHOITCS & PROSTHETICS, INC.", "Telephone": "9516964447", "City": "WILDOMAR", "State2": "CA", "Zip5": null, "address": "36243 INLAND VALLEY DR, WILDOMAR, CA, ", "match": true, "lat": 33.596544851000033, "lon": -117.23679593099996 }, "geometry": { "type": "Point", "coordinates": [ -117.236795930999961, 33.596544851000033 ] } },
{ "type": "Feature", "properties": { "NPI": "1356370423", "Name": "ODYSSEY PROSTHETICS & ORTHOTICS INC.", "Telephone": "9098900577", "City": "SAN BERNARDINO", "State2": "CA", "Zip5": null, "address": "738 S WATERMAN AVE, SAN BERNARDINO, CA, ", "match": true, "lat": 34.087334490000046, "lon": -117.27875443299996 }, "geometry": { "type": "Point", "coordinates": [ -117.27875443299996, 34.087334490000046 ] } },
{ "type": "Feature", "properties": { "NPI": "1336456193", "Name": "QUALITY CARE PROSTHETICS & ORTHOTICS, INC.", "Telephone": "7146439206", "City": "ANAHEIM", "State2": "CA", "Zip5": null, "address": "1665 W KATELLA AVE, ANAHEIM, CA, ", "match": true, "lat": 33.803176932000042, "lon": -117.93985083599995 }, "geometry": { "type": "Point", "coordinates": [ -117.939850835999948, 33.803176932000042 ] } },
{ "type": "Feature", "properties": { "NPI": "1043559677", "Name": "RESTORE ORTHOTICS AND PROSTHETICS", "Telephone": "5306054292", "City": "REDDING", "State2": "CA", "Zip5": null, "address": "2147 COURT ST, REDDING, CA, ", "match": true, "lat": 40.57729439700006, "lon": -122.39313457699996 }, "geometry": { "type": "Point", "coordinates": [ -122.393134576999955, 40.57729439700006 ] } },
{ "type": "Feature", "properties": { "NPI": "1104173053", "Name": "MOBILE PROSTHETICS AND ORTHOTICS LLC", "Telephone": "5102826898", "City": "UNION CITY", "State2": "CA", "Zip5": null, "address": "33374 DOWE AVE, UNION CITY, CA, ", "match": true, "lat": 37.601059233000058, "lon": -122.04352153999997 }, "geometry": { "type": "Point", "coordinates": [ -122.043521539999972, 37.601059233000058 ] } },
{ "type": "Feature", "properties": { "NPI": "1720093115", "Name": "HANDS ON PROSTHETICS INC", "Telephone": "7148478751", "City": "HUNTINGTON BEACH", "State2": "CA", "Zip5": null, "address": "7921 PROFESSIONAL CIR, HUNTINGTON BEACH, CA, ", "match": true, "lat": 33.691767041000048, "lon": -117.99046586399999 }, "geometry": { "type": "Point", "coordinates": [ -117.990465863999987, 33.691767041000048 ] } },
{ "type": "Feature", "properties": { "NPI": "1134219413", "Name": "HOWARD ORTHOPEDICS, INC", "Telephone": "5102221282", "City": "RICHMOND", "State2": "CA", "Zip5": null, "address": "3065 RICHMOND PKWY, RICHMOND, CA, ", "match": true, "lat": 37.990100555000026, "lon": -122.33024143099999 }, "geometry": { "type": "Point", "coordinates": [ -122.330241431, 37.990100555000026 ] } },
{ "type": "Feature", "properties": { "NPI": "1306861232", "Name": "KOLMAN PROSTHETICS ORTHOTICS,INC.", "Telephone": "5626980988", "City": "WHITTIER", "State2": "CA", "Zip5": null, "address": "7633 GREENLEAF AVE, WHITTIER, CA, ", "match": true, "lat": 33.973025206000045, "lon": -118.03736697799997 }, "geometry": { "type": "Point", "coordinates": [ -118.037366977999966, 33.973025206000045 ] } },
{ "type": "Feature", "properties": { "NPI": "1104856806", "Name": "AMERICAN ORTHOTICS & PROSTHETICS, LLC.", "Telephone": "9513676702", "City": "RIVERSIDE", "State2": "CA", "Zip5": null, "address": "3714 TIBBETTS ST, RIVERSIDE, CA, ", "match": true, "lat": 33.947300297000027, "lon": -117.39746951699999 }, "geometry": { "type": "Point", "coordinates": [ -117.397469517, 33.947300297000027 ] } },
{ "type": "Feature", "properties": { "NPI": "1952439796", "Name": "NORTH BAY PROSTHETICS AND ORTHOTICS LLC", "Telephone": "7074255028", "City": "FAIRFIELD", "State2": "CA", "Zip5": null, "address": "450 CHADBOURNE RD, FAIRFIELD, CA, ", "match": true, "lat": 38.233650149000027, "lon": -122.08379638399998 }, "geometry": { "type": "Point", "coordinates": [ -122.083796383999982, 38.233650149000027 ] } },
{ "type": "Feature", "properties": { "NPI": "1275885824", "Name": "VITALIS ORTHOPEDICS", "Telephone": "8185303161", "City": "PANORAMA CITY", "State2": "CA", "Zip5": null, "address": "7618 WOODMAN AVE, PANORAMA CITY, CA, ", "match": true, "lat": 34.208750448000046, "lon": -118.43093939699997 }, "geometry": { "type": "Point", "coordinates": [ -118.430939396999975, 34.208750448000046 ] } },
{ "type": "Feature", "properties": { "NPI": "1205187218", "Name": "APEX PROSTHETICS INSTITUTE OF SAN DIEGO", "Telephone": "6195015383", "City": "SAN DIEGO", "State2": "CA", "Zip5": null, "address": "3585 5TH AVE, SAN DIEGO, CA, ", "match": true, "lat": 32.743032419000031, "lon": -117.16037636099998 }, "geometry": { "type": "Point", "coordinates": [ -117.160376360999976, 32.743032419000031 ] } },
{ "type": "Feature", "properties": { "NPI": "1952301640", "Name": "BREAKEY PROSTHETICS, INC.", "Telephone": "4087230883", "City": "SAN JOSE", "State2": "CA", "Zip5": null, "address": "820 MALONE RD, SAN JOSE, CA, ", "match": true, "lat": 37.296764537000058, "lon": -121.88248596799997 }, "geometry": { "type": "Point", "coordinates": [ -121.882485967999969, 37.296764537000058 ] } },
{ "type": "Feature", "properties": { "NPI": "1295769289", "Name": "SEQUOIA PROSTHETICS & ORTHOTICS, INC.", "Telephone": "5597341060", "City": "VISALIA", "State2": "CA", "Zip5": null, "address": "5435 W HILLSDALE AVE, VISALIA, CA, ", "match": true, "lat": 36.329540936000058, "lon": -119.35178526099997 }, "geometry": { "type": "Point", "coordinates": [ -119.351785260999975, 36.329540936000058 ] } },
{ "type": "Feature", "properties": { "NPI": "1346225968", "Name": "LERMAN AND SON ORTHOTICS AND PROSTHETICS INC", "Telephone": "3106592290", "City": "BEVERLY HILLS", "State2": "CA", "Zip5": null, "address": "8710 WILSHIRE BLVD, BEVERLY HILLS, CA, ", "match": true, "lat": 34.06659703300005, "lon": -118.38188566599996 }, "geometry": { "type": "Point", "coordinates": [ -118.38188566599996, 34.06659703300005 ] } },
{ "type": "Feature", "properties": { "NPI": "1902076987", "Name": "M&G CUSTOM SHOES AND ORTHOTICS LLC", "Telephone": "9253051855", "City": "ANTIOCH", "State2": "CA", "Zip5": null, "address": "1504 A ST, ANTIOCH, CA, ", "match": true, "lat": 38.00713346200007, "lon": -121.80602924 }, "geometry": { "type": "Point", "coordinates": [ -121.806029239999987, 38.00713346200007 ] } },
{ "type": "Feature", "properties": { "NPI": "1609135029", "Name": "M&G CUSTOM SHOES AND ORTHOTICS LLC", "Telephone": "9253051855", "City": "WALNUT CREEK", "State2": "CA", "Zip5": null, "address": "2950 BUSKIRK AVE, WALNUT CREEK, CA, ", "match": true, "lat": 37.927201677000028, "lon": -122.05998414799996 }, "geometry": { "type": "Point", "coordinates": [ -122.059984147999955, 37.927201677000028 ] } },
{ "type": "Feature", "properties": { "NPI": "1760749675", "Name": "CAPSTONE ORTHOPEDIC, INC.", "Telephone": "8314210007", "City": "SANTA CRUZ", "State2": "CA", "Zip5": null, "address": "1010 WATER ST, SANTA CRUZ, CA, ", "match": true, "lat": 36.981426870000064, "lon": -122.01303837299997 }, "geometry": { "type": "Point", "coordinates": [ -122.013038372999972, 36.981426870000064 ] } },
{ "type": "Feature", "properties": { "NPI": "1720126824", "Name": "CAPSTONE ORTHOPEDIC, INC.", "Telephone": "5592980321", "City": "FRESNO", "State2": "CA", "Zip5": null, "address": "7015 N CHESTNUT AVE, FRESNO, CA, ", "match": true, "lat": 36.837868241000024, "lon": -119.73612375799996 }, "geometry": { "type": "Point", "coordinates": [ -119.736123757999962, 36.837868241000024 ] } },
{ "type": "Feature", "properties": { "NPI": "1750506713", "Name": "INHOUS ORTHOPEDICS, INC.", "Telephone": "7148399026", "City": "WESTMINSTER", "State2": "CA", "Zip5": null, "address": "15571 BROOKHURST ST, WESTMINSTER, CA, ", "match": true, "lat": 33.735454641000047, "lon": -117.95485065799994 }, "geometry": { "type": "Point", "coordinates": [ -117.954850657999941, 33.735454641000047 ] } },
{ "type": "Feature", "properties": { "NPI": "1598038614", "Name": "AMERICAN ORTHOTICS & PROSTHETICS", "Telephone": "9094739308", "City": "SAN BERNARDINO", "State2": "CA", "Zip5": null, "address": "1666 MEDICAL CENTER DR, SAN BERNARDINO, CA, ", "match": true, "lat": 34.129575241000055, "lon": -117.32258020499995 }, "geometry": { "type": "Point", "coordinates": [ -117.322580204999952, 34.129575241000055 ] } },
{ "type": "Feature", "properties": { "NPI": "1023302015", "Name": "BALDWIN ORTHOTICS & PROSTHETICS INC", "Telephone": "9518247850", "City": "MORENO VALLEY", "State2": "CA", "Zip5": null, "address": "24475 SUNNYMEAD BLVD, MORENO VALLEY, CA, ", "match": true, "lat": 33.939103765000027, "lon": -117.23372850699997 }, "geometry": { "type": "Point", "coordinates": [ -117.233728506999967, 33.939103765000027 ] } },
{ "type": "Feature", "properties": { "NPI": "1023188943", "Name": "JENNINGS ORTHOPEDIC INC", "Telephone": "9513522029", "City": "RIVERSIDE", "State2": "CA", "Zip5": null, "address": "10683 MAGNOLIA AVE, RIVERSIDE, CA, ", "match": true, "lat": 33.908629613000073, "lon": -117.46719264599994 }, "geometry": { "type": "Point", "coordinates": [ -117.467192645999944, 33.908629613000073 ] } },
{ "type": "Feature", "properties": { "NPI": "1932365673", "Name": "HEMET PROSTHETIC & ORTHOTIC GROUP, INC.", "Telephone": "9512969677", "City": "TEMECULA", "State2": "CA", "Zip5": null, "address": "41785 ENTERPRISE CIR S, TEMECULA, CA, ", "match": true, "lat": 33.517508073000045, "lon": -117.16673403499999 }, "geometry": { "type": "Point", "coordinates": [ -117.166734035, 33.517508073000045 ] } },
{ "type": "Feature", "properties": { "NPI": "1881648467", "Name": "HEMET PROSTHETIC & ORTHOTIC GROUP, INC.", "Telephone": "9517664297", "City": "HEMET", "State2": "CA", "Zip5": null, "address": "1133 E FLORIDA AVE, HEMET, CA, ", "match": true, "lat": 33.747600718000058, "lon": -116.96033377099997 }, "geometry": { "type": "Point", "coordinates": [ -116.960333770999966, 33.747600718000058 ] } },
{ "type": "Feature", "properties": { "NPI": "1447415930", "Name": "CAREMEDICS ORTHOTICS & PROSTHETICS INC", "Telephone": "7149567998", "City": "ANAHEIM", "State2": "CA", "Zip5": null, "address": "421 N BROOKHURST ST, ANAHEIM, CA, ", "match": true, "lat": 33.838616625000043, "lon": -117.95903249699995 }, "geometry": { "type": "Point", "coordinates": [ -117.959032496999953, 33.838616625000043 ] } },
{ "type": "Feature", "properties": { "NPI": "1306270798", "Name": "RABBIT'S FOOT ORTHOTICS AND PROSTHETICS", "Telephone": "8589431691", "City": "SAN DIEGO", "State2": "CA", "Zip5": null, "address": "12540 OAKS NORTH DR, SAN DIEGO, CA, ", "match": true, "lat": 33.033026717000041, "lon": -117.05927181199996 }, "geometry": { "type": "Point", "coordinates": [ -117.059271811999963, 33.033026717000041 ] } },
{ "type": "Feature", "properties": { "NPI": "1659377836", "Name": "ACHILLES PROSTHETICS AND ORTHOTICS, INC", "Telephone": "6613235944", "City": "BAKERSFIELD", "State2": "CA", "Zip5": null, "address": "2624 F ST, BAKERSFIELD, CA, ", "match": true, "lat": 35.383196332000068, "lon": -119.02347250499997 }, "geometry": { "type": "Point", "coordinates": [ -119.023472504999972, 35.383196332000068 ] } },
{ "type": "Feature", "properties": { "NPI": "1689070823", "Name": "TAEDS ORTOTICS & PROSTHETICS", "Telephone": "8057101947", "City": "ARROYO GRANDE", "State2": "CA", "Zip5": null, "address": "145 S HALCYON RD, ARROYO GRANDE, CA, ", "match": true, "lat": 35.116989683000043, "lon": -120.59155210099999 }, "geometry": { "type": "Point", "coordinates": [ -120.591552101, 35.116989683000043 ] } },
{ "type": "Feature", "properties": { "NPI": "1154594349", "Name": "VALLEY ORTHOPEDIC INC", "Telephone": "5597337976", "City": "VISALIA", "State2": "CA", "Zip5": null, "address": "5603 W HILLSDALE AVE, VISALIA, CA, ", "match": true, "lat": 36.32953703700008, "lon": -119.35307071499994 }, "geometry": { "type": "Point", "coordinates": [ -119.353070714999944, 36.32953703700008 ] } },
{ "type": "Feature", "properties": { "NPI": "1265438857", "Name": "VALLEY ORTHOPEDIC INC", "Telephone": "5592211933", "City": "FRESNO", "State2": "CA", "Zip5": null, "address": "3520 E SHIELDS AVE, FRESNO, CA, ", "match": true, "lat": 36.779559478000067, "lon": -119.76575977799996 }, "geometry": { "type": "Point", "coordinates": [ -119.765759777999961, 36.779559478000067 ] } },
{ "type": "Feature", "properties": { "NPI": "1811213549", "Name": "PEDIATRIC ORTHOTIC AND PROSTHETIC SERVICES-WEST, LLC", "Telephone": "9164532170", "City": "SACRAMENTO", "State2": "CA", "Zip5": null, "address": "2425 STOCKTON BLVD, SACRAMENTO, CA, ", "match": true, "lat": 38.552849645000038, "lon": -121.45619021699997 }, "geometry": { "type": "Point", "coordinates": [ -121.456190216999971, 38.552849645000038 ] } },
{ "type": "Feature", "properties": { "NPI": "1457769499", "Name": "TURNER ORTHOTICS AND PROSTHETICS LLC", "Telephone": "7073018989", "City": "VACAVILLE", "State2": "CA", "Zip5": null, "address": "413 MELISSA CT, VACAVILLE, CA, ", "match": true, "lat": 38.31666086000007, "lon": -121.96734818199997 }, "geometry": { "type": "Point", "coordinates": [ -121.967348181999967, 38.31666086000007 ] } },
{ "type": "Feature", "properties": { "NPI": "1427463637", "Name": "ESCALATE PROSTHETIC ORTHOTIC CLINIC", "Telephone": "3104808760", "City": "CORONA", "State2": "CA", "Zip5": null, "address": "2982 MCDONALD LN, CORONA, CA, ", "match": true, "lat": 33.842484827000078, "lon": -117.57274629099999 }, "geometry": { "type": "Point", "coordinates": [ -117.572746290999987, 33.842484827000078 ] } },
{ "type": "Feature", "properties": { "NPI": "1356763742", "Name": "ACHILLES PROSTHETICS AND ORTHOTICS, INC", "Telephone": "8054341600", "City": "TEMPLETON", "State2": "CA", "Zip5": null, "address": "234 HEATHER CT, TEMPLETON, CA, ", "match": true, "lat": 35.554039611000064, "lon": -120.71763648099994 }, "geometry": { "type": "Point", "coordinates": [ -120.717636480999943, 35.554039611000064 ] } },
{ "type": "Feature", "properties": { "NPI": "1508285461", "Name": "LIMBOLOGY, LLC", "Telephone": "5599366104", "City": "VISALIA", "State2": "CA", "Zip5": null, "address": "3603 W HILLSDALE AVE, VISALIA, CA, ", "match": true, "lat": 36.329420943000059, "lon": -119.33083586599997 }, "geometry": { "type": "Point", "coordinates": [ -119.330835865999973, 36.329420943000059 ] } },
{ "type": "Feature", "properties": { "NPI": "1508284191", "Name": "GRABOWSKI OCULAR PROSTHETICS LLC", "Telephone": "5596253937", "City": "VISALIA", "State2": "CA", "Zip5": null, "address": "300 E MINERAL KING AVE, VISALIA, CA, ", "match": true, "lat": 36.327455064000048, "lon": -119.28995378599996 }, "geometry": { "type": "Point", "coordinates": [ -119.289953785999955, 36.327455064000048 ] } },
{ "type": "Feature", "properties": { "NPI": "1821373275", "Name": "HANGER PROSTHETICS & ORTHOTICS WEST", "Telephone": "7603360703", "City": "EL CENTRO", "State2": "CA", "Zip5": null, "address": "1073 ROSS AVE, EL CENTRO, CA, ", "match": true, "lat": 32.781500825000023, "lon": -115.56467533899996 }, "geometry": { "type": "Point", "coordinates": [ -115.564675338999962, 32.781500825000023 ] } },
{ "type": "Feature", "properties": { "NPI": "1053738674", "Name": "ALLIANCE PROSTHETICS & ORTHOTICS INC.", "Telephone": "5629451111", "City": "WHITTIER", "State2": "CA", "Zip5": null, "address": "12458 E WASHINGTON BLVD, WHITTIER, CA, ", "match": true, "lat": 33.967610534000073, "lon": -118.04625703499994 }, "geometry": { "type": "Point", "coordinates": [ -118.04625703499994, 33.967610534000073 ] } },
{ "type": "Feature", "properties": { "NPI": "1134293285", "Name": "HANGER PROSTHETICS & ORTHOTICS WEST INC", "Telephone": "9257340344", "City": "PLEASANTON", "State2": "CA", "Zip5": null, "address": "5880 W LAS POSITAS BLVD, PLEASANTON, CA, ", "match": true, "lat": 37.684461731000056, "lon": -121.89576748999997 }, "geometry": { "type": "Point", "coordinates": [ -121.895767489999969, 37.684461731000056 ] } },
{ "type": "Feature", "properties": { "NPI": "1659366003", "Name": "SIERRA ORTHOPEDIC LABORATORY, INC.", "Telephone": "7075289808", "City": "SANTA ROSA", "State2": "CA", "Zip5": null, "address": "4847 OLD REDWOOD HWY, SANTA ROSA, CA, ", "match": true, "lat": 38.501796010000078, "lon": -122.75340027599998 }, "geometry": { "type": "Point", "coordinates": [ -122.753400275999979, 38.501796010000078 ] } },
{ "type": "Feature", "properties": { "NPI": "1205149804", "Name": "HANGER PROSTHETICS & ORTHOTICS WEST, INC.", "Telephone": "8584851620", "City": "POWAY", "State2": "CA", "Zip5": null, "address": "12630 MONTE VISTA RD, POWAY, CA, ", "match": true, "lat": 32.994652595000048, "lon": -117.05523910499994 }, "geometry": { "type": "Point", "coordinates": [ -117.055239104999941, 32.994652595000048 ] } },
{ "type": "Feature", "properties": { "NPI": "1053547497", "Name": "HANGER PROSTHETICS & ORTHOTICS WEST, INC.", "Telephone": "6196677000", "City": "LA MESA", "State2": "CA", "Zip5": null, "address": "5360 JACKSON DR, LA MESA, CA, ", "match": true, "lat": 32.776565221000055, "lon": -117.01673842499997 }, "geometry": { "type": "Point", "coordinates": [ -117.016738424999971, 32.776565221000055 ] } },
{ "type": "Feature", "properties": { "NPI": "1376585752", "Name": "SCOPE ORTHOTICS & PROSTHETICS, INC.", "Telephone": "9495839667", "City": "LAGUNA WOODS", "State2": "CA", "Zip5": null, "address": "24331 EL TORO RD, LAGUNA WOODS, CA, ", "match": true, "lat": 33.609372239000038, "lon": -117.72826457199994 }, "geometry": { "type": "Point", "coordinates": [ -117.728264571999944, 33.609372239000038 ] } },
{ "type": "Feature", "properties": { "NPI": "1659794824", "Name": "ORTHOPAEDIC REHAB", "Telephone": "3103202110", "City": "TORRANCE", "State2": "CA", "Zip5": null, "address": "2375 TORRANCE BLVD, TORRANCE, CA, ", "match": true, "lat": 33.836386508000032, "lon": -118.32510647399999 }, "geometry": { "type": "Point", "coordinates": [ -118.325106474, 33.836386508000032 ] } },
{ "type": "Feature", "properties": { "NPI": "1487728366", "Name": "HANGER PROSTHETICS & ORTHOTICS WEST INC", "Telephone": "7149786784", "City": "ORANGE", "State2": "CA", "Zip5": null, "address": "2140 W CHAPMAN AVE, ORANGE, CA, ", "match": true, "lat": 33.787879623000038, "lon": -117.87663971299997 }, "geometry": { "type": "Point", "coordinates": [ -117.876639712999975, 33.787879623000038 ] } },
{ "type": "Feature", "properties": { "NPI": "1821430844", "Name": "NORTH BAY PROSTHETICS AND ORTHOTICS LLC", "Telephone": "9167372200", "City": "SACRAMENTO", "State2": "CA", "Zip5": null, "address": "3001 P ST, SACRAMENTO, CA, ", "match": true, "lat": 38.566470922000065, "lon": -121.46930460599998 }, "geometry": { "type": "Point", "coordinates": [ -121.46930460599998, 38.566470922000065 ] } },
{ "type": "Feature", "properties": { "NPI": "1144533118", "Name": "NORTH BAY PROSTHETICS AND ORTHOTICS LLC", "Telephone": "7072547010", "City": "NAPA", "State2": "CA", "Zip5": null, "address": "3273 CLAREMONT WAY, NAPA, CA, ", "match": true, "lat": 38.321919720000039, "lon": -122.30282752399995 }, "geometry": { "type": "Point", "coordinates": [ -122.302827523999952, 38.321919720000039 ] } },
{ "type": "Feature", "properties": { "NPI": "1144651092", "Name": "GEIGER PROSTHETICS AND ORTHOTICS, INC.", "Telephone": "5599010073", "City": "VISALIA", "State2": "CA", "Zip5": null, "address": "917 W CENTER AVE, VISALIA, CA, ", "match": true, "lat": 36.331012968000039, "lon": -119.30130342799998 }, "geometry": { "type": "Point", "coordinates": [ -119.301303427999983, 36.331012968000039 ] } },
{ "type": "Feature", "properties": { "NPI": "1710314497", "Name": "WEST COAST PROSTHETICS INCORPORATED", "Telephone": "6262566360", "City": "MONROVIA", "State2": "CA", "Zip5": null, "address": "210 KRUSE AVE, MONROVIA, CA, ", "match": true, "lat": 34.127700134000065, "lon": -118.00125593299998 }, "geometry": { "type": "Point", "coordinates": [ -118.001255932999982, 34.127700134000065 ] } },
{ "type": "Feature", "properties": { "NPI": "1376549568", "Name": "ACHILLES PROSTHETICS AND ORTHOTICS, INC", "Telephone": "8059256144", "City": "SANTA MARIA", "State2": "CA", "Zip5": null, "address": "622 E MAIN ST, SANTA MARIA, CA, ", "match": true, "lat": 34.953097951000075, "lon": -120.42783071699995 }, "geometry": { "type": "Point", "coordinates": [ -120.427830716999949, 34.953097951000075 ] } },
{ "type": "Feature", "properties": { "NPI": "1801960786", "Name": "HANGER PROSTHETICS & ORTHOTICS WEST INC", "Telephone": "5305337344", "City": "OROVILLE", "State2": "CA", "Zip5": null, "address": "2275 MYERS ST, OROVILLE, CA, ", "match": true, "lat": 39.50710627400008, "lon": -121.55143450399999 }, "geometry": { "type": "Point", "coordinates": [ -121.551434503999985, 39.50710627400008 ] } },